OrganisationID,OrganisationCode,OrganisationType,SubType,OrganisationStatus,IsPimsManaged,OrganisationName,Address1,Address2,Address3,City,County,Postcode,Latitude,Longitude,ParentODSCode,ParentName,Phone,Email,Website,Fax
26,V00203,Dentists,UNKNOWN,Visible,True,mydentist, Railway Road, Blackburn ,,15-17 Railway Road,,Blackburn,Lancashire,BB1 5AX,53.748104095458984,-2.4804141521453857,Q47,Lancashire Area Team,01254691311,blackburn3-pm@mydentist.co.uk,https://www.mydentist.co.uk,
27,V04490,Dentists,UNKNOWN,Visible,True,mydentist, Preston New Road, Blackburn,,40d Preston New Road,,Blackburn,Lancashire,BB2 6AH,53.752265930175781,-2.4891667366027832,Q47,Lancashire Area Team,01254278178,blackburn-pm@mydentist.co.uk,https://www.mydentist.co.uk,0125451846
28,V08165,Dentists,UNKNOWN,Visible,True,Darwenside Dental Practice,Union Street,Darwen,,Lancs,,BB3 0DA,53.696891784667969,-2.4685168266296387,Q47,Lancashire Area Team,01254 703020,enquires@darwendental.co.uk,,01254 777251
60,V06985,Dentists,UNKNOWN,Visible,True,Practice on The Green,138 High Street,,,Bushey,,WD23 3DJ,51.644458770751953,-0.36279124021530151,Q58,Hertfordshire And The South Midlands Area Team,0208 950 9599,,,
61,V06940,Dentists,UNKNOWN,Visible,True,Orthoclinic,171 Shenley Road,,,Borehamwood,Hertfordshire,WD6 1AH,51.656951904296875,-0.27399247884750366,Q58,Hertfordshire And The South Midlands Area Team,0208 207 5800,info@orthoclinicuk.com,http://www.orthoclinicuk.com,
64,V10614,Dentists,UNKNOWN,Visible,True,Broughton Dental Practice ,57-61 Tanfield Lane,Broughton,,Milton Keynes,,MK10 9NJ,52.048332214355469,-0.69863200187683105,Q58,Hertfordshire And The South Midlands Area Team,01908 241000,,,
93,V08804,Dentists,UNKNOWN,Visible,True,Sale Dental Spa,,77 Washway Road,,Sale,Cheshire,M33 7TQ,53.421585083007813,-2.3292884826660156,Q46,Greater Manchester Area Team,0161 969 7432,,,
96,V09142,Dentists,UNKNOWN,Visible,True,Central Dental Practice,,36 Victoria Place,,Carlisle,Cumbria,CA1 1EX,54.895610809326172,-2.9304220676422119,Q49,Cumbria, Northumberland, Tyne And Wear Area Team,01228534031,carlisle2-pm@idhgroup.co.uk,https://www.mydentist.co.uk,01228818724
123,V00319,Dentists,UNKNOWN,Visible,True,Oasis Dental Care,39 Buckingham Road,Aylesbury,Bucks,Bucks,,HP19 9PT,51.821304321289063,-0.81472742557525635,Q69,Thames Valley Area Team,01296 482950,aylesbury@oasisdentalcare.com,http://buckinghamroaddental.co.uk,
124,V00327,Dentists,UNKNOWN,Visible,False,Mr & Mrs Cookson & Partners,1b Meadow Walk,Buckingham,Bucks,,,MK18 1RS,52.000675201416016,-0.98536807298660278,Q69,Thames Valley Area Team,01280 812701,,,
128,V00329,Dentists,UNKNOWN,Visible,True,White House Dental Studio,34a The High Street,,Winslow,Bucks,,MK18 3HB,51.943069458007813,-0.88112050294876099,Q69,Thames Valley Area Team,01296 712264,,,
131,V00313,Dentists,UNKNOWN,Visible,True,Eastgate Dental Centre,Eastgate House,46 Wedgewood Street,Aylesbury,Bucks,,HP19 7HL,51.817638397216797,-0.83937102556228638,Q69,Thames Valley Area Team,01296 433222,,,
132,V06597,Dentists,UNKNOWN,Visible,True,Stonydelph Dental Practice,26 Ellerbeck,Above Spar shop,Stonydelph,Tamworth,Staffordshire,B77 4JA,52.617561340332031,-1.6508774757385254,Q60,Shropshire And Staffordshire Area Team,01827 897857,,http://www.toothpick.com/practice/stonydelph-dental-practice-1?h,
134,V12844,Dentists,UNKNOWN,Visible,True,mydentist, Quay Road, Bridlington,,69 Quay Road,,Bridlington,North Humberside,YO16 4EL,54.087360382080078,-0.20260158181190491,Q50,North Yorkshire And Humber Area Team,01262673277,bridlington-pm@mydentist.co.uk,https://www.mydentist.co.uk,
136,V08211,Dentists,UNKNOWN,Visible,True,Myers & Campbell ,34-36 Doncaster Road,,,Scunthorpe,,DN15 7RQ,53.590938568115234,-0.65808093547821045,Q50,North Yorkshire And Humber Area Team,01724 842054,,,
142,V16859,Dentists,UNKNOWN,Visible,True,Dental Access Centre,,The Flying Scotsman Centre,St Sepulchre Gate West,Doncaster,South Yorkshire,DN1 3AP,53.520912170410156,-1.1377391815185547,Q51,South Yorkshire And Bassetlaw Area Team,00000000000,,,
152,V13795,Dentists,UNKNOWN,Visible,True,Bulwell House Dental Practice,124 Main Street,Bulwell,,Nottingham,,NG6 8ET,53.003150939941406,-1.1953617334365845,Q55,Derbyshire And Nottinghamshire Area Team,0115 9760997,,,
153,V14078,Dentists,UNKNOWN,Visible,True,Bilborough Dental Practice,Bracebridge Drive,Bilborough,,Nottingham,,NG8 4PN,52.963970184326172,-1.2310322523117065,Q55,Derbyshire And Nottinghamshire Area Team,0115 9293398,,http://www.rodericksdental.co.uk,
162,V08615,Dentists,UNKNOWN,Visible,True,Smile Care Dental Clinic,72 Beaumont Leys Lane,Leicester,,Leics,,LE4 2BA,52.656887054443359,-1.1378365755081177,Q59,Leicestershire And Lincolnshire Area Team,0116 2661422,,,
163,V08765,Dentists,UNKNOWN,Visible,True,Maple Dental Clinic,440 East Park Road,Leicester,Leics,,,LE5 5HH,52.627346038818359,-1.1088100671768188,Q59,Leicestershire And Lincolnshire Area Team,0116 273 3131,,http://www.mapledentalclinic.co.uk,
165,V06519,Dentists,UNKNOWN,Visible,False,Armada Dental Surgery,14 Greenbank Avenue,,Plymouth,Devon,,PL4 8PT,50.373699188232422,-4.1264266967773437,Q66,Devon, Cornwall And Isles Of Scilly Area Team,01752 662986,,,
182,V12006,Dentists,UNKNOWN,Visible,True,Excel Dental Centre,1a Cheadle Road,Cheadle,,Cheshire,,SK8 1HW,53.386096954345703,-2.2097876071929932,Q46,Greater Manchester Area Team,0161 428 1104,,,
183,V12432,Dentists,UNKNOWN,Visible,True,Dairyground Dental Practice,59a Dairyground Road,Bramhall,,Stockport,,SK7 2QW,53.365657806396484,-2.1570751667022705,Q46,Greater Manchester Area Team,0161 439 3098,,,
240,V09574,Dentists,UNKNOWN,Visible,True,Barnfield Dental Studio,,10a Barnfield Hill,,Exeter,Devon,EX1 1SR,50.723400115966797,-3.5203828811645508,Q66,Devon, Cornwall And Isles Of Scilly Area Team,01392 410160,mail@barnfielddentalstudio.com,http://www.barnfielddentalstudio.com/,
241,V07456,Dentists,UNKNOWN,Visible,False,Ellison & Griffiths,83 King Street,Whalley,Clitheroe,Lancs,,BB7 9SW,53.822257995605469,-2.4068737030029297,Q47,Lancashire Area Team,01254 825425,,,
242,V15087,Dentists,UNKNOWN,Visible,True,Ravat & Ray Dental Care (Burnley),,The Fold Centre for Integrated Health & Wellbeing,2-8 Venice Avenue,Burnley,,BB11 5JX,53.781726837158203,-2.267742395401001,Q47,Lancashire Area Team,01282 644932,,http://www.ravatandray.com/,
243,V07552,Dentists,UNKNOWN,Visible,True,mydentist, Park Avenue, Barnoldswick ,,8 Park Avenue,,Barnoldswick,Lancashire,BB18 5AT,53.913204193115234,-2.1855998039245605,Q47,Lancashire Area Team,01282817990,barnoldswick-pm@idhgroup.co.uk,https://mydentist.co.uk/,01282816246
244,V07388,Dentists,UNKNOWN,Visible,True,Reedyford Dental Centre,231-233 Leeds Road,,,Nelson,Lancashire,BB9 8EH,53.841945648193359,-2.2052385807037354,Q47,Lancashire Area Team,01282 614352,reedyforddentalpatientaccess1@gmail.com,http://www.reedyforddental.com,01282 696839
245,V07122,Dentists,UNKNOWN,Visible,True,The Terrace Dental Practice,61-63 Church Street,Padiham,Burnley,Lancashire,,BB12 8JH,53.800960540771484,-2.3193655014038086,Q47,Lancashire Area Team,01282 775552,,http://www.theterracedentalpractice.com/,01282 775448
328,V09333,Dentists,UNKNOWN,Visible,False,Gentle Dental Care,12 Chapter Street,,London,,,SW1P 4NR,51.491855621337891,-0.1331438273191452,Q71,London Area Team,020 7834 1882,,,020 75812642
329,V03038,Dentists,UNKNOWN,Visible,True,The Orthodontic Practice of Sarah Burns,116 Chaplin Road,Wembley,Middlesex,London,,HA0 4UZ,51.549720764160156,-0.30674177408218384,Q71,London Area Team,020 8795 6066,,,
330,V03741,Dentists,UNKNOWN,Visible,True,Porchester  Dental Practice,,11 Porchester Gardens,,London,,W2 4DB,51.513641357421875,-0.18846063315868378,Q71,London Area Team,020 7727 3650,,,
336,V00664,Dentists,UNKNOWN,Visible,True,Portelly Dental Surgery,108 St. Georges Road,,,London,,SE1 6EU,51.496524810791016,-0.10511920601129532,Q71,London Area Team,020 7928 4474,info@theportellypractice.co.uk,http://www.theportellypractice.co.uk/,
337,V00695,Dentists,UNKNOWN,Visible,True,Williams,82 Park Hall Road,London,London,,,SE21 8BW,51.435874938964844,-9.0609341859817505E-2,Q71,London Area Team,020 8265 9797,,,
338,V00690,Dentists,UNKNOWN,Visible,True,Norton,179 Denmark Hill,London,,,,SE5 8DX,51.460384368896484,-9.3703649938106537E-2,Q71,London Area Team,020 7274 0861,,,
340,V11475,Dentists,UNKNOWN,Visible,True,Talbot Dental Clinic - Owen,85-87 Borough High Street,Talbot Yard,,London,,SE1 1NH,51.504188537597656,-9.0334370732307434E-2,Q71,London Area Team,020 7407 3929,,http://www.talbot-dental.co.uk,
341,V09401,Dentists,UNKNOWN,Visible,False,Sheriff,3a Fellbridge House,Dog Kennel Hill,London,,,SE22 8BQ,51.464179992675781,-8.3683855831623077E-2,Q71,London Area Team,020 7095 9818,,,
342,V00678,Dentists,UNKNOWN,Visible,True,Hopkins,Half Moon Dental Centre,Half Moon Lane,Herne Hill,LONDON,,SE24 9JU,51.453151702880859,-0.10063774138689041,Q71,London Area Team,020 7733 0011,,http://www.halfmoondental.com,
360,V11825,Dentists,UNKNOWN,Visible,True,Union Street Dental Practice,Union Street,Union Street,,Hyde,,SK14 1NX,53.449977874755859,-2.0758960247039795,Q46,Greater Manchester Area Team,0161 366 2420,,,
365,V03349,Dentists,UNKNOWN,Visible,True,Edgerton Dental Clinic,80 New North Road,Edgerton,,Huddersfield,,HD1 5NE,53.651790618896484,-1.7931308746337891,Q52,West Yorkshire Area Team,01484 530 343,,,
370,V07262,Dentists,UNKNOWN,Visible,True,Euro Dental Care,368 Court Oak Road,Harborne,,Birmingham,West Midlands,B32 2DY,52.460357666015625,-1.9817801713943481,Q54,Birmingham And The Black Country Area Team,0121 428 2999,reception@eurodentalcare.co.uk,http://www.eurodentalcare.co.uk,
434,V12974,Dentists,UNKNOWN,Visible,True,Aldridge House Dental Practice,31 High Street,Aldridge,,Walsall,West Midlands,WS9 8LX,52.605003356933594,-1.9171494245529175,Q54,Birmingham And The Black Country Area Team,01922 455897,aldridge@rodericksdental.co.uk,http://www.rodericksdental.co.uk/aldridge/index.html,
435,V13318,Dentists,UNKNOWN,Visible,True,Wisdom Dental Care,77 Collingwood Drive,Pheasey Park,,Great Barr,,B43 7JW,52.557727813720703,-1.9061461687088013,Q54,Birmingham And The Black Country Area Team,0121 360 9898,,,
436,V06945,Dentists,UNKNOWN,Visible,True,Goodall Dental Practice,45 Goodall Street,Walsall,,Walsall,,WS1 1QJ,52.583274841308594,-1.9783059358596802,Q54,Birmingham And The Black Country Area Team,01922 642621,info@goodalldentalpractice.co.uk,http://www.goodalldentalpractice.co.uk/,
663,V03033,Dentists,UNKNOWN,Visible,True,mydentist, Trinity Square, Uttoxeter ,,5-6 Trinity Square,,Uttoxeter,Staffordshire,ST14 8TH,52.897319793701172,-1.8627383708953857,Q60,Shropshire And Staffordshire Area Team,01889560818,uttoxeter-pm@mydentist.co.uk,https://www.mydentist.co.uk,01889563593
664,V00066,Dentists,UNKNOWN,Visible,True,mydentist, High Street, Stone,,10 High Street,,Stone,Staffordshire,ST15 8AW,52.901901245117188,-2.1466929912567139,Q60,Shropshire And Staffordshire Area Team,01785818284,stone-pm@mydentist.co.uk,https://www.mydentist.co.uk/,01785814208
670,V02396,Dentists,UNKNOWN,Visible,True,Noble Dental Practice,9 Mill Street,,,Sutton Coldfield,,B72 1TJ,52.564624786376953,-1.822898268699646,Q54,Birmingham And The Black Country Area Team,0121 354 9215,,,
733,V13852,Dentists,UNKNOWN,Visible,True,Aldridge Road Dental Practice ,352 Dyas Road,Great Barr,,Birmingham,,B44 8TB,52.543331146240234,-1.902151346206665,Q54,Birmingham And The Black Country Area Team,0121 325 0055,info@smiledentistbirmingham.co.uk,http://www.smiledentistbirmingham.co.uk,
735,V13853,Dentists,UNKNOWN,Visible,True,Soho Road Dental Practice,78 Soho Road,Handsworth,,Birmingham,,B21 9BN,52.502159118652344,-1.9278163909912109,Q54,Birmingham And The Black Country Area Team,0121 523 8231,info@smiledentistbirmingham.co.uk,http://www.smiledentistbirmingham.co.uk,
737,V04913,Dentists,UNKNOWN,Visible,True,Coventry Road Dental Practice ,410 Coventry Road,Small Heath,,Birmingham,,B10 0UF,52.471343994140625,-1.86195969581604,Q54,Birmingham And The Black Country Area Team,0121 772 1607,,,
740,V05874,Dentists,UNKNOWN,Visible,True,R Kumar Dental Spa,R Kumar Dental Spa,191 -193 Birchfield Rd,Perry Barr,Birmingham,West Midlands,B19 1LL,52.507488250732422,-1.9025843143463135,Q54,Birmingham And The Black Country Area Team,0121 515 1594,forma86@gmail.com,,
759,V12300,Dentists,UNKNOWN,Visible,True,Perry Park Dental,289 Walsall Road,Perry Barr,,Birmingham,,B42 1TY,52.525684356689453,-1.9043424129486084,Q54,Birmingham And The Black Country Area Team,0121 356 6300,,,
782,V00058,Dentists,UNKNOWN,Visible,True,mydentist, Broad Lane, Bramley,{my] dentist,380 Broad Lane,Bramley,Leeds,West Yorkshire,LS13 2HS,53.815502166748047,-1.6356910467147827,Q52,West Yorkshire Area Team,01132578416,bramley-pm@mydentist.co.uk,http://mydentist.co.uk/,
831,V10953,Dentists,UNKNOWN,Visible,True,Thompson & Thomas,Fairlawns,621 Middlewood Road,Hillsborough,SHEFFIELD,South Yorkshire,S6 1TT,53.418926239013672,-1.5153441429138184,Q51,South Yorkshire And Bassetlaw Area Team,0114 2313454,,,
908,V05478,Dentists,UNKNOWN,Visible,True,Chilwell dp,165 High Road,Chilwell,,Nottingham,,NG9 5BA,52.9189453125,-1.2277843952178955,Q55,Derbyshire And Nottinghamshire Area Team,0115 9678200,info@chilwelldp.co.uk,http://www.chilwelldp.co.uk,
919,V05484,Dentists,UNKNOWN,Visible,True,Oradent Studio,13 Victoria Street,Eastwood,Nottingham,Nottinghamshire,,NG16 3AW,53.018417358398437,-1.3071194887161255,Q55,Derbyshire And Nottinghamshire Area Team,01773 719993,,,
922,V01921,Dentists,UNKNOWN,Visible,False,Compton Acres Dental Practice,Compton Acres,West Bridgford,Nottingham,Nottinghamshire,,NG2 7RS,52.918678283691406,-1.1527109146118164,Q55,Derbyshire And Nottinghamshire Area Team,01159 455664,,,
1023,V12755,Dentists,UNKNOWN,Visible,True,Oasis Dental Care Ltd,14 Campbell-Savours Way,Washington Square Shopping Centre,,Workington,,CA14 3DZ,54.643516540527344,-3.5458724498748779,Q49,Cumbria, Northumberland, Tyne And Wear Area Team,01900 68826,workington@oasisdentalcare.com,http://washingtonsquaredental.co.uk,01900 68863
1024,V12752,Dentists,UNKNOWN,Visible,True,Oasis Dental Care Ltd,,59a Stramongate,,Kendal,,LA9 4BH,54.328197479248047,-2.7439901828765869,Q49,Cumbria, Northumberland, Tyne And Wear Area Team,01539 737220,kendal@oasisdentalcare.com,http://westmorlanddental.co.uk,
1026,V12657,Dentists,UNKNOWN,Visible,True,Oasis Dental Care Ltd,Bridge Street,,,Maryport,,CA15 8AE,54.714603424072266,-3.50203537940979,Q49,Cumbria, Northumberland, Tyne And Wear Area Team,01900 818825,maryport@oasisdentalcare.com,http://theharbourdentalpractice.co.uk,01900 818186
1027,V12656,Dentists,UNKNOWN,Visible,True,Oasis Dental Care Ltd,9 Market Place,,,Egremont,,CA22 2AE,54.481212615966797,-3.5283048152923584,Q49,Cumbria, Northumberland, Tyne And Wear Area Team,01946 821034,egremont@oasisdentalcare.com,http://themarketplacedentalpractice.co.uk,01946 821145
1028,V12753,Dentists,UNKNOWN,Visible,True,Oasis Dental Care Ltd,Units 3 and 4, Ground Floor,Pears House,,Whitehaven,,CA28 7HW,54.550037384033203,-3.5888118743896484,Q49,Cumbria, Northumberland, Tyne And Wear Area Team,01946 696282,whitehaven@oasisdentalcare.com,http://quaysidedental.co.uk,01946 696742
1030,V13778,Dentists,UNKNOWN,Visible,True,Oasis Dental Care Ltd,Unit 4,Packhorse Court,,Keswick,,CA12 5JB,54.600940704345703,-3.1362886428833008,Q49,Cumbria, Northumberland, Tyne And Wear Area Team,017687 72452,reception.keswick@oasisdentalcare.com,http://packhorsecourtdental.co.uk,017687 72517
1048,5NE96__000001_CA13EB,Dentists,UNKNOWN,Visible,True,Windmill Orthodontics,Unit 2,The Sidings,Portland Road,Carlisle,,CA2 7AF,54.896778106689453,-2.9526534080505371,Q49,Cumbria, Northumberland, Tyne And Wear Area Team,0844 387 2000,,,
1049,V13923,Dentists,UNKNOWN,Visible,True,Oasis Dental Care Ltd,Units 5 and 6,Furness House, Duke Street/Dalton Road,,Barrow-Infurness,,LA14 1HN,54.111209869384766,-3.2261509895324707,Q49,Cumbria, Northumberland, Tyne And Wear Area Team,01229 829096,reception.barrow@oasisdentalcare.com,http://furnesshousedental.co.uk,01229 827593
1050,V13889,Dentists,UNKNOWN,Visible,True,Oasis Dental Care Ltd,Gound Floor, Exchange House,Cecil Street,,Carlisle,Cumbria,CA1 1NL,54.892646789550781,-2.9301822185516357,Q49,Cumbria, Northumberland, Tyne And Wear Area Team,01228 520966,carlisle@oasisdentalcare.com,http://cecilstreetdental.co.uk,01228 521073
1051,V13924,Dentists,UNKNOWN,Visible,True,Oasis Dental Care Ltd,Government Building,St Georges Road,,Millom,,LA18 5DN,54.2109375,-3.2735874652862549,Q49,Cumbria, Northumberland, Tyne And Wear Area Team,01229 779601,reception.millom@oasisdentalcare.com,http://millomdental.co.uk,01229 779608
1080,V00303,Dentists,UNKNOWN,Visible,False,Caro & Caro Dental Practice,5 Richmond Road,,St Annes,Lancashire,,FY8 1PE,53.750133514404297,-3.0278308391571045,Q47,Lancashire Area Team,01253 714145,,,
1081,V00727,Dentists,UNKNOWN,Visible,True,Albany Dental Care,Albany Road,Ansdell,,Lytham St Annes,,FY8 4GW,53.748622894287109,-3.0003306865692139,Q47,Lancashire Area Team,01253 957280,,,
1082,V07773,Dentists,UNKNOWN,Visible,True,Welcare Dental Centre,39 Kensington Road,,Morecambe,Lancashire,,LA4 5LU,54.072303771972656,-2.859905481338501,Q47,Lancashire Area Team,01524 422692,,,
1083,V03302,Dentists,UNKNOWN,Visible,False,The Dental Surgery,6 New Street,,Lancaster,Lancashire,,LA1 1EG,54.04931640625,-2.8021082878112793,Q47,Lancashire Area Team,01524 32639,,,
1085,V07752,Dentists,UNKNOWN,Visible,False,King & Associates,Council Buildings,46/48 Market Street,Carnforth,Lancashire,,LA5 9LB,54.128749847412109,-2.7667317390441895,Q47,Lancashire Area Team,01524 733867,,,
1086,V03263,Dentists,UNKNOWN,Visible,True,Hest Bank Dental Care,3 Marine Drive,Hest Bank,,Lancaster,,LA2 6DZ,54.090911865234375,-2.8143315315246582,Q47,Lancashire Area Team,01524 825218,,,
1087,V03242,Dentists,UNKNOWN,Visible,True,The Dental Surgery,31 Princes Crescent,Bare,Morecambe,Lancashire,,LA4 6BY,54.078174591064453,-2.8394694328308105,Q47,Lancashire Area Team,01524 831150,,,
1195,V09836,Dentists,UNKNOWN,Visible,True,Quest Dental Care,Quest Dental Care,Red Lion Street,,Burnley,Lancashire,BB11 2AE,53.788352966308594,-2.2425429821014404,Q47,Lancashire Area Team,01282 833500,reception@questdentalcare.co.uk,http://www.questdentalcare.co.uk/,
1262,V13748,Dentists,UNKNOWN,Visible,True,Clavell-Bate & Nephew Dental Surgeons,89 King Street,,Whalley,Lancashire,,BB7 9SW,53.822257995605469,-2.4068737030029297,Q47,Lancashire Area Team,01254 823221,,,
1369,V06415,Dentists,UNKNOWN,Visible,False,The Larty Dental Clinic ,563 Barlow Moor Road,Chorlton,Manchester,,,M21 8AE,53.441715240478516,-2.2768588066101074,Q46,Greater Manchester Area Team,0161 881 3465,,,0161 860 0787
1370,V10338,Dentists,UNKNOWN,Visible,False,Chorlton Heath Centre Dental Clinic,1 Nicholas Road,Chorlton,Manchester,,,M21 9NJ,53.44378662109375,-2.2799737453460693,Q46,Greater Manchester Area Team,0161 860 2912,,,
1373,V06189,Dentists,UNKNOWN,Visible,False,City Centre Dental Practice - Mr Moss,3rd Floor, 20 St Ann's Square,City Centre,Manchester,,,M2 7HG,53.482185363769531,-2.2461709976196289,Q46,Greater Manchester Area Team,0161 834 7310,,http://www.citycentredentist.com,
1379,V13336,Dentists,UNKNOWN,Visible,True,Whitby Dental care ,The Ropery,St. Hilda's Business Centre,,Whitby,,YO22 4ET,54.482631683349609,-0.60830754041671753,Q50,North Yorkshire And Humber Area Team,01947 605080,,,
1410,V12912,Dentists,UNKNOWN,Visible,True,Genix Healthcare Limited,No: 6,Southgate,,Market Weighton,,YO43 3AG,53.863121032714844,-0.66473007202148438,Q50,North Yorkshire And Humber Area Team,01430 879171,marketweighton@genixhealthcare.com,http://www.genixhealthcarecareers.com/,
1411,V13014,Dentists,UNKNOWN,Visible,True,Portland Dental Practice,4 Hull Road,,,Withernsea,,HU19 2DZ,53.731296539306641,2.9512770473957062E-2,Q50,North Yorkshire And Humber Area Team,01964 614949,,,
1505,V10607,Dentists,UNKNOWN,Visible,True,Whole Tooth Dental Practice,1 Enterprise Court,Grovebury Road,Leighton Buzzard,Beds,Bedfordshire,LU7 4SZ,51.909446716308594,-0.66127556562423706,Q58,Hertfordshire And The South Midlands Area Team,01525 374100,mail@wholetooth.co.uk,http://www.wholetoothdental.com,
1506,V02850,Dentists,UNKNOWN,Visible,True,The Tomlinson Avenue Orthodontic Centre,91 Tomlinson Avenue,,Luton,Beds,,LU4 0QL,51.899826049804687,-0.4938015341758728,Q58,Hertfordshire And The South Midlands Area Team,01582 515346,jilpapatel@yahoo.co.uk,,
1552,V07937,Dentists,UNKNOWN,Visible,True,Al-Tahan Mr B,Galley Hill Dental Practice,434 Galley Hill,Warners End,Hemel Hemsptead,Hertfordshire,HP1 3RE,51.761604309082031,-0.49665197730064392,Q58,Hertfordshire And The South Midlands Area Team,01442 231662,,,
1747,V05799,Dentists,UNKNOWN,Visible,True,Brookside Dental Clinic,Brookside Dental clinic,94 St Marys Road,Market Harborough,Leics,Leicestershire,LE16 7DX,52.477989196777344,-0.91463160514831543,Q59,Leicestershire And Lincolnshire Area Team,01858 462734,info@brooksidedentalclinic.co.uk,,
1748,V10451,Dentists,UNKNOWN,Visible,True,mydentist, Asfordby Road, Melton Mowbray,,8 Asfordby Road,,Melton Mowbray,Leicestershire,LE13 0HR,52.766948699951172,-0.89266961812973022,Q59,Leicestershire And Lincolnshire Area Team,01664563876,meltonmowbray-pm@idhgroup.co.uk,https://www.mydentist.co.uk,
1749,V10452,Dentists,UNKNOWN,Visible,True,ADP Oakham,ADP Oakham,The White House,17 Burley Road,Oakham,Leicestershire,LE15 6DH,52.670520782470703,-0.72537636756896973,Q59,Leicestershire And Lincolnshire Area Team,01572770579,oakham-pm@idhgroup.co.uk,https://www.mydentist.co.uk,
1751,V11567,Dentists,UNKNOWN,Visible,False,Orthodontics at Oakham Dental Studio,Knights Yard,Gaol Street,,Oakham,,LE15 6AQ,52.669288635253906,-0.7302480936050415,Q59,Leicestershire And Lincolnshire Area Team,01572 771175,,,
1758,V13433,Dentists,UNKNOWN,Visible,True,Syston Dental Care,1126 Melton Road,,,Syston,,LE7 2HA,52.695049285888672,-1.0793330669403076,Q59,Leicestershire And Lincolnshire Area Team,0116 269 5111,,,
1827,V14059,Dentists,UNKNOWN,Visible,True,The Owen Street Dental Practice,1 Owen Street,Tipton,,West Midlands,,DY4 8HB,52.528690338134766,-2.0693986415863037,Q54,Birmingham And The Black Country Area Team,0121 522 2552,tipton@oasisdentalcare.com,http://owenstreetdental.co.uk,
1828,V11171,Dentists,UNKNOWN,Visible,True,Oldbury Dental Centre,Oldbury Health Centre,Albert Street,,Oldbury,,B69 4DE,52.503753662109375,-2.0138342380523682,Q54,Birmingham And The Black Country Area Team,0121 612 2691,,,0121 612 2690
1836,V17417,Dentists,UNKNOWN,Visible,False,Salaried Dental Services - Dental Headquarters,1st Floor Primary Care Building,Sandwell General Hospital,Lyndon,West Bromwich,,B71 4HJ,52.527359008789063,-1.9878699779510498,Q54,Birmingham And The Black Country Area Team,0121 507 2741,,,0121 507 2817
1842,V01462,Dentists,UNKNOWN,Visible,True,Shiels & Steward Dental Practice,58 Shirley Road,Acocks Green,,Birmingham,,B27 7XH,52.445045471191406,-1.8241424560546875,Q54,Birmingham And The Black Country Area Team,0121 708 1818,,,0121 706 0073
1843,V01438,Dentists,UNKNOWN,Visible,True,Rees Dental Practice,3 Victoria Road,Acocks Green,,Birmingham,,B27 7XZ,52.444454193115234,-1.8196282386779785,Q54,Birmingham And The Black Country Area Team,0121 706 1373,,,
1844,V01436,Dentists,UNKNOWN,Visible,True,Rai Dental Surgery,109 Westley Road,Acocks Green,Birmingham,W Midlands,,B27 7UW,52.445842742919922,-1.8283618688583374,Q54,Birmingham And The Black Country Area Team,0121 706 3496,m.rai@btclick.com,,0121 706 3496
1845,V01196,Dentists,UNKNOWN,Visible,True,Dr Cottam Orthodontic Practice,20 Summer Road,Acocks Green,Birmingham,W Midlands,,B27 7UT,52.444869995117187,-1.8337945938110352,Q54,Birmingham And The Black Country Area Team,0121 708 2994,,,0121 707 1569
1846,V01474,Dentists,UNKNOWN,Visible,True,Bhandal Dental Practice - Acocks Green,63 Westley Road,Acocks Green,,Birmingham,,B27 7UQ,52.446018218994141,-1.8260806798934937,Q54,Birmingham And The Black Country Area Team,0121 707 8877,,http://www.bhandaldentalpractices.co.uk/?,0121 707 8282
1899,V11341,Dentists,UNKNOWN,Visible,True,Oasis Dental Care Ltd,8 Mill Street,,,Sutton Coldfield,,B72 1TJ,52.564624786376953,-1.822898268699646,Q54,Birmingham And The Black Country Area Team,0121 321 2094,suttoncoldfield@oasisdentalcare.com,http://oasismillstreetdental.co.uk,0121 321 2086
1900,V04889,Dentists,UNKNOWN,Visible,True,Mr F Mohamed,408 Green Lane,Small Heath,,Birmingham,,B9 5QJ,52.47491455078125,-1.8476089239120483,Q54,Birmingham And The Black Country Area Team,0121 766 6082,,,
1901,V04874,Dentists,UNKNOWN,Visible,True,Warwick Road Dental Surgery,576 Warwick Road,Tyseley,Birmingham,,,B11 2HR,52.45343017578125,-1.8489632606506348,Q54,Birmingham And The Black Country Area Team,0121 706 2289,,,0121 604 2228
1902,V04895,Dentists,UNKNOWN,Visible,True,Dental Surgery,2a Bowyer Road,Saltley,Birmingham,,,B8 1ET,52.487712860107422,-1.8521889448165894,Q54,Birmingham And The Black Country Area Team,0121 327 0577,,,
1903,V04896,Dentists,UNKNOWN,Visible,True,Park Dental Practice,628 Coventry Road,Small Heath,Birmingham,,,B10 0UT,52.467594146728516,-1.8516086339950562,Q54,Birmingham And The Black Country Area Team,0121 772 1725,,,
1904,V04910,Dentists,UNKNOWN,Visible,True,J W Taylor & Associates,488 Bordesley Green,Bordesley Green,,Birmingham,,B9 5PA,52.478630065917969,-1.8419128656387329,Q54,Birmingham And The Black Country Area Team,0121 772 1148,,,0121 773 8294
1961,5PK/116459/0001__000001_WS73XJ,Dentists,UNKNOWN,Visible,True,High Street Dental Practice,267 High Street,Chasetown,,Burntwood,,WS7 3XJ,52.680778503417969,-1.9342386722564697,Q60,Shropshire And Staffordshire Area Team,01543 685897,,,
1962,V13182,Dentists,UNKNOWN,Visible,True,Stop the Clock Dental Care Ltd,Eastern Avenue,,,Burton On Trent,,DE13 0AT,52.827476501464844,-1.6200499534606934,Q60,Shropshire And Staffordshire Area Team,01283 547411,,,
1964,V13199,Dentists,UNKNOWN,Visible,True,Tamworth House Dental Practice (Rodericks Ltd),,21 Church Street,,Tamworth,Staffordshire,B79 7BX,52.633987426757813,-1.6957414150238037,Q60,Shropshire And Staffordshire Area Team,01827 64743,tamworthhouse@rodericksdental.co.uk,http://www.tamworthhousedental.co.uk,01827 64742
1965,V11986,Dentists,UNKNOWN,Visible,True,Burton Dental Practice,High Street Dental practice,65 High Street,,Burton on Trent,Staffordshire,DE14 1LE,52.805133819580078,-1.6280471086502075,Q60,Shropshire And Staffordshire Area Team,01283 545469,,,01283 543891
1966,V12136,Dentists,UNKNOWN,Visible,True,Hill Street Dental Practice,Hill Street Health and Well Being Centre,Hill Street,Stapenhill,Burton On Trent,,DE15 9LD,52.791027069091797,-1.6248753070831299,Q60,Shropshire And Staffordshire Area Team,01283 568776,hillstreet@rodericksdental.co.uk,,
1967,V13159,Dentists,UNKNOWN,Visible,True,Brookhouse Dental Practice,Gnosall Health Centre,Brookhouse Road,Gnosall,Staffordshire,,ST20 0GP,52.790111541748047,-2.2565224170684814,Q60,Shropshire And Staffordshire Area Team,01785 824765,,,
1975,V10536,Dentists,UNKNOWN,Visible,False,Jacme Dental Practice,80 Upper St. John Street,Lichfield,Staffs,,,WS14 9DX,52.678142547607422,-1.8258568048477173,Q60,Shropshire And Staffordshire Area Team,01543 268369,,,01543 268387
1998,V07329,Dentists,UNKNOWN,Visible,True,Eachway Dental Practice,14 Eachway,,Birmingham,Rubery,,B45 9DQ,52.390308380126953,-2.018397331237793,Q53,Arden, Herefordshire And Worcestershire Area Team,0121 4532793,donna@eachwaydentalpractice.co.uk,http://www.eachwaydentalpractice.co.uk/,
2069,V11059,Dentists,UNKNOWN,Visible,True,Falkner House Dental Practice,Mill Lane,Sawston,,Cambridge,,CB22 3HY,52.122505187988281,0.16359803080558777,Q56,East Anglia Area Team,01223 839520,falkerhouse.ahg@gmail.com,http://www.antwerphouse.co.uk,
2074,V05757,Dentists,UNKNOWN,Visible,True,Wisbech Community Dental Service,,1-4 Church Mews,,Wisbech,Cambridgeshire,PE13 1HL,52.665088653564453,0.16245655715465546,Q56,East Anglia Area Team,0800 952 0870,,,01945 581391
2220,V11882,Dentists,UNKNOWN,Visible,True,St Clements Dental Suite,London Road,West Thurrock,,Grays,,RM20 4AR,51.476547241210938,0.2909565269947052,Q57,Essex Area Team,01708 895480,stclements@dentistryforyou.co.uk,http://www.dentistryforyou.co.uk,01708 895489
2221,V11872,Dentists,UNKNOWN,Visible,True,Elite Dental Studio,14 Civic Square,Thurrock,Tilbury,Essex,,RM18 8AD,51.462081909179687,0.36544111371040344,Q57,Essex Area Team,01375 852044,info@elitedentalstudio.co.uk,http://www.elitedentalstudio.co.uk,
2533,V12123,Dentists,UNKNOWN,Visible,True,Tewkesbury House Dental Practice,23 Barton Street,Tewkesbury,,Gloucester,,GL20 5PR,51.992984771728516,-2.1544179916381836,Q64,Bath, Gloucestershire, Swindon And Wiltshire Area Team,01684 276937,,,
2542,V13635,Dentists,UNKNOWN,Visible,True,Archway Dental Practice Ltd,Frome House,London Road,,Stroud,,GL5 2AF,51.743831634521484,-2.2161059379577637,Q64,Bath, Gloucestershire, Swindon And Wiltshire Area Team,01453 760330,,,
2544,V12125,Dentists,UNKNOWN,Visible,True,Oasis Dental Care,1b Hylton Court,Newerne Street,,Lydney,,GL15 5RF,51.726570129394531,-2.5299093723297119,Q64,Bath, Gloucestershire, Swindon And Wiltshire Area Team,01594 845718,lydney@oasisdentalcare.com,http://lydneydental.co.uk,
2561,5QH20013__000001_GL503HJ,Dentists,UNKNOWN,Visible,True,mydentist, St Margarets Road, Cheltenham,,Unit 6A, The Brewery,St Margaret's Road,Cheltenham,Gloucestershire,GL50 4FA,51.904064178466797,-2.0750346183776855,Q64,Bath, Gloucestershire, Swindon And Wiltshire Area Team,01242 256341,cheltenham-pm@mydentist.co.uk,https://www.mydentist.co.uk,01242 2257104
2562,V10319,Dentists,UNKNOWN,Visible,True,Tetbury Dental Practice,Tetbury Hospital,Malmesbury Road,,Tetbury,Gloucestershire,GL8 8XB,51.635223388671875,-2.1546573638916016,Q64,Bath, Gloucestershire, Swindon And Wiltshire Area Team,01666 500032,,,01666 500032
2563,V12061,Dentists,UNKNOWN,Visible,True,Chipping Manor Dental Practice ,56 Ashcroft Road,,Cirencester,Gloucestershire,,GL7 1QX,51.71441650390625,-1.9700887203216553,Q64,Bath, Gloucestershire, Swindon And Wiltshire Area Team,01285 641686,cirencester@chippingmanor.co.uk,http://www.chippingmanor.co.uk/cirencester/,
2696,V12470,Dentists,UNKNOWN,Visible,True,mydentist, Anthony Road, Torpoint,125 Antony Road,Cornwall,,Torpoint,Cornwall,PL11 2JY,50.377174377441406,-4.2040114402770996,Q66,Devon, Cornwall And Isles Of Scilly Area Team,01752 812894,torpoint-pm@mydentist.co.uk,https://www.mydentist.co.uk,01752 816794
2697,V01445,Dentists,UNKNOWN,Visible,True,Bude Oasis - April Lodge Dental Practice,Stratton Road,,Bude,Cornwall,,EX23 9AF,50.826671600341797,-4.5198774337768555,Q66,Devon, Cornwall And Isles Of Scilly Area Team,01288 355355,reception.bude@oasisdentalcare.com,http://aprillodgedental.co.uk,01288 355355
2698,V01087,Dentists,UNKNOWN,Visible,True,Peninsula Dental School,Dental Education Facility,Knowledge Spa,Truro,Cornwall,,TR1 3HD,50.264930725097656,-5.0931339263916016,Q66,Devon, Cornwall And Isles Of Scilly Area Team,0345 1558109,,,01872252492
2740,V10795,Dentists,UNKNOWN,Visible,True,Penwith Dental Care (Oasis),Penwith House,High Street,,Penzance,,TR18 2SX,50.120079040527344,-5.5382137298583984,Q66,Devon, Cornwall And Isles Of Scilly Area Team,01736 350110,penzance@oasisdentalcare.com,http://penwithhousedental.co.uk,01736 364366
2754,V12529,Dentists,UNKNOWN,Visible,True,Taw Valley Dental Care,56 Fore Street,North Tawton,,Okehampton,,EX20 2DT,50.799995422363281,-3.9000823497772217,Q66,Devon, Cornwall And Isles Of Scilly Area Team,01837 880096,,,
2757,V10678,Dentists,UNKNOWN,Visible,True,mydentist, Hannaford’s Landing, Salcombe,Hannaford's Landing,Island Street,,Salcombe,,TQ8 8FE,50.240039825439453,-3.7682204246520996,Q66,Devon, Cornwall And Isles Of Scilly Area Team,01548 844 844,salcombe-pm@mydentist.co.uk,https://www.mydentist.co.uk,
2768,V13442,Dentists,UNKNOWN,Visible,True,Den Dental Group Sidmouth,,1-2 Mill Street,,Sidmouth,,EX10 8DF,50.681064605712891,-3.2364706993103027,Q66,Devon, Cornwall And Isles Of Scilly Area Team,0844 3879903,,http://www.dendental.co.uk,
2769,V10685,Dentists,UNKNOWN,Visible,True,mydentist, Salterton Road, Exmouth,103 Salterton Road,,,Exmouth,Devon,EX8 2NH,50.625125885009766,-3.3889782428741455,Q66,Devon, Cornwall And Isles Of Scilly Area Team,01395 282715,exmouth-pm@mydentist.co.uk,https://www.mydentist.co.uk,
2771,V11273,Dentists,UNKNOWN,Visible,True,Queen Street Dental Practice ,Salters Cottage,6 Queen Street,,Budleigh Salterton,,EX9 6LB,50.629016876220703,-3.3259902000427246,Q66,Devon, Cornwall And Isles Of Scilly Area Team,00000000000,,,
2791,V13147,Dentists,UNKNOWN,Visible,True,Moor Dental Care,7 West Street,,,Ashburton,,TQ13 7DT,50.514804840087891,-3.7568874359130859,Q66,Devon, Cornwall And Isles Of Scilly Area Team,01364 652850,mail@moordentalcare.co.uk,http://www.moordentalcare.co.uk,
2815,V12138,Dentists,UNKNOWN,Visible,True,Dart Vale Dental Practice,24 Bridgetown,,,Totnes,,TQ9 5AD,50.430488586425781,-3.679490327835083,Q66,Devon, Cornwall And Isles Of Scilly Area Team,01803 840200,,http://www.dartvaledentalcare.co.uk,
2888,V08036,Dentists,UNKNOWN,Visible,True,Forest Road Dental Practice,16 Forest Road,,,Loughborough,,LE11 3NP,52.766647338867188,-1.2103538513183594,Q59,Leicestershire And Lincolnshire Area Team,01509 233323,enquiries@forestroaddental.plus.com,http://www.forestroaddental.plus.com,01509 239924
2890,V09598,Dentists,UNKNOWN,Visible,True,Community Dental Service,Steels Lane Special Care Dental Practice,384-397 Commercial Road,,London,,E1 0LR,51.513500213623047,-4.9677096307277679E-2,Q71,London Area Team,020 7790 9619,,,020 7791 3681
2895,V12709,Dentists,UNKNOWN,Visible,False,Community Dental Service,417 Ilford Lane,Ilford,Essex,,,IG1 2SN,51.546504974365234,7.6924368739128113E-2,Q71,London Area Team,020 8822 3882,,http://www.onelcommunityservices.nhs.uk,
2897,V07285,Dentists,UNKNOWN,Visible,True,Dentoral Dental Practice,,4c Swan Street,Loughborough,Leics,,LE11 5BE,52.773548126220703,-1.2089393138885498,Q59,Leicestershire And Lincolnshire Area Team,01509 213385,,,
2898,V12322,Dentists,UNKNOWN,Visible,True,Atlantic Dental Practice at Ropewalks,28  Argyle Street,,,Liverpool,,L1 5DL,53.401473999023437,-2.9845867156982422,Q48,Merseyside Area Team,0151 295 9870,,,
2899,V06405,Dentists,UNKNOWN,Visible,True,Wednesfield Dental Practice,74 Lichfield Road,Wednesfield,Wolverhampton,West Midlands,,WV11 1TP,52.603370666503906,-2.0784945487976074,Q54,Birmingham And The Black Country Area Team,01902 731734,wednesfielddentalpractice@live.co.uk,,01902 73633
2900,V12928,Dentists,UNKNOWN,Visible,True,Holsworthy NHS Dental Care,1st Floor, Penroses, Bodmin Street,,,Holsworthy,,EX22 6BB,50.809055328369141,-4.3535833358764648,Q66,Devon, Cornwall And Isles Of Scilly Area Team,01409 255525,,http://www.holsworthydentalcentre.co.uk,
2907,V07662,Dentists,UNKNOWN,Visible,True,Cheyne Walk Orthodontics,7 Cheyne Walk,Northampton,,Northampton,,NN1 5PT,52.236175537109375,-0.88886398077011108,Q58,Hertfordshire And The South Midlands Area Team,01604 639877,,,
2908,V09893,Dentists,UNKNOWN,Visible,True,Sutton Park Dental Centre,Sutton Park Dental Centre,43 Sutton Park Road,,Kidderminster,Worcestershire,DY11 6LD,52.375507354736328,-2.2673137187957764,Q53,Arden, Herefordshire And Worcestershire Area Team,01562 744840,spdental@soegateway.com,,
2910,V10181,Dentists,UNKNOWN,Visible,True,Langthorne Health Centre,,13 Langthorne Road,,London,,E11 4HX,51.555404663085938,2.1140887401998043E-3,Q71,London Area Team,0208 4307510,,,
2911,V02528,Dentists,UNKNOWN,Visible,True,Oak Hill Dental Practice,101 Oak Hill,Woodford Green,,Essex,,IG8 9PF,51.603794097900391,3.6644453648477793E-3,Q71,London Area Team,020 8531 7976,oakhilldental@btconnect.com,,
2912,V09933,Dentists,UNKNOWN,Visible,False,Community Dental Service,46 Ravenswood Road,Walthamstow,London,,,E17 9LY,51.583175659179688,-9.0357260778546333E-3,Q71,London Area Team,020 8430 7111,,,
2913,V09603,Dentists,UNKNOWN,Visible,True,Community Dental Service,Spitalfields Special Care Dental Practice,9-11 Brick Lane,,London,,E1 6PU,51.518138885498047,-7.1402177214622498E-2,Q71,London Area Team,020 7247 8558,,,020 7247 2037
2914,V02916,Dentists,UNKNOWN,Visible,False,Mr F AMINI,18 Church Hill,London,,,,E17 3AG,51.585044860839844,-1.7975900322198868E-2,Q71,London Area Team,020 8520 3872,,,
2916,V01984,Dentists,UNKNOWN,Visible,True,Whitehill House Dental Practice,Whitehall House,Mill Street,Corfe Mullen,WIMBORNE,Dorset,BH21 3RH,50.786403656005859,-2.0372002124786377,Q70,Wessex Area Team,01258 857789,info@whitehallhousedental.co.uk,,
2917,V09542,Dentists,UNKNOWN,Visible,True,Hainault Community dental service,Manford Way,Chigwell,,Essex,,IG7 4DF,51.607761383056641,0.10442997515201569,Q71,London Area Team,020 3644 2028,,,
2920,V07709,Dentists,UNKNOWN,Visible,True,Marylebone Dental Practice,61 Paddington Street,,,London,,W1U 4JD,51.520622253417969,-0.1525225043296814,Q71,London Area Team,020 7935 2980,,,020 7487 4580
2921,V09396,Dentists,UNKNOWN,Visible,True,Worcester Road Dental Practice,91 Worcester Road,Droitwich,Worcs,,,WR9 8AQ,52.262485504150391,-2.1518082618713379,Q53,Arden, Herefordshire And Worcestershire Area Team,01905 796331,,,
2923,V10014,Dentists,UNKNOWN,Visible,True,Emergency Dental Care Revive Dental Care – Liverpool,45 Everton Road,Liverpool,,Merseyside,,L6 2EH,53.415794372558594,-2.9645905494689941,Q48,Merseyside Area Team,0161 476 9651,,http://www.revivedentalcare.co.uk/,
2924,V00113,Dentists,UNKNOWN,Visible,True,Melcombe Avenue Dental Practice,,Weymouth Community Hospital,3 Melcombe Avenue,WEYMOUTH,Dorset,DT4 7TB,50.621059417724609,-2.451040506362915,Q70,Wessex Area Team,01305 761111,,,
2926,V09845,Dentists,UNKNOWN,Visible,True,Dental Directorate,Hartington Road,Toxteth,,Liverpool,,L8 0SG,53.395004272460937,-2.9444947242736816,Q48,Merseyside Area Team,0151 285 2811,,,
2928,V03786,Dentists,UNKNOWN,Visible,True,Old Swan Dental Practice,6 Derby Lane,Old Swan,,Liverpool,,L13 3DL,53.41455078125,-2.9139492511749268,Q48,Merseyside Area Team,0151 228 3624,,,
2929,V07109,Dentists,UNKNOWN,Visible,True,Longford Dental Practice,177 Longford Road,Longford,,Coventry,W Midlands,CV6 6EE,52.449760437011719,-1.4862147569656372,Q53,Arden, Herefordshire And Worcestershire Area Team,024 76644777,,,024 76367778
2930,V07114,Dentists,UNKNOWN,Visible,True,Rotherham Road Dental Practice,4 Rotherham Road,Coventry,,W Midlands,,CV6 4FE,52.442928314208984,-1.512187123298645,Q53,Arden, Herefordshire And Worcestershire Area Team,024 76688266,,,
2933,V13226,Dentists,UNKNOWN,Visible,True,TLC4 Smiles,30 Clifton Road,,,Ashbourne,Derbyshire,DE6 1DT,53.010669708251953,-1.740807056427002,Q55,Derbyshire And Nottinghamshire Area Team,01335 348694,tlc4smilesash@hotmail.co.uk,,
2934,V09417,Dentists,UNKNOWN,Visible,True,Trinity Gate Dental Practice,Trinity Gate Mews,39 St Nicholas Street,Worcester,Worcs,,WR1 1UW,52.194007873535156,-2.2199525833129883,Q53,Arden, Herefordshire And Worcestershire Area Team,01905 617766,info@trinitygatedental.co.uk,http://www.trinitygatedental.co.uk,
2935,V12515,Dentists,UNKNOWN,Visible,True,Bennisons Dental Practice ,Lowland Road,,,Brandon,Durham,DH7 8NN,54.750965118408203,-1.6306113004684448,Q45,Durham, Darlington And Tees Area Team,0191 378 3444,laurabean@bennisonsdental.co.uk,,
2936,V05425,Dentists,UNKNOWN,Visible,True,Mawsley Dental Clinic  Ltd,Mawsley Dental,School Road,Mawsley Village,Kettering,Northamptonshire,NN14 1SN,52.375858306884766,-0.81449657678604126,Q58,Hertfordshire And The South Midlands Area Team,01536 799210,mawsley@southerndental.co.uk,http://www.southerndental.co.uk,01536 799399
2938,V06820,Dentists,UNKNOWN,Visible,False,Peachcroft Orthodontics,Unit 8 Peachcroft Shopping Centre,,Abingdon,Oxfordshire,,OX14 2QA,51.684604644775391,-1.26580810546875,Q69,Thames Valley Area Team,01235 559269,,http://www.pcortho.co.uk,01235 629559
2940,V08146,Dentists,UNKNOWN,Visible,True,Heath Dental,Market Square, 32 Main Street,Dickens Heath,Shirley, Solihull,West Midlands,West Midlands,B90 1UA,52.385051727294922,-1.8368251323699951,Q54,Birmingham And The Black Country Area Team,0844 375 6349,info@heathdental.com,http://www.heathdental.com/,
2941,V12939,Dentists,UNKNOWN,Visible,True,Burton Dental Care - Mr Al-Himdani,125 Burton Road,Didsbury,,Manchester,,M20 1JP,53.429428100585937,-2.2390329837799072,Q46,Greater Manchester Area Team,0161 438 0446,,,
2942,V05770,Dentists,UNKNOWN,Visible,True,West Hill Dental Care,2 Old Village Hall,West Hill,,Ottery St Mary,,EX11 1TP,50.741527557373047,-3.31268310546875,Q66,Devon, Cornwall And Isles Of Scilly Area Team,01404 811770,,,
2943,V12327,Dentists,UNKNOWN,Visible,True,Clearly Orthodontics,1A Main Street,Humberstone,,Leicester,Leicestershire,LE5 1AE,52.646930694580078,-1.0751409530639648,Q59,Leicestershire And Lincolnshire Area Team,0116 2100 205,info@clearlyortho.co.uk,http://www.clearlyortho.co.uk,
2944,V05870,Dentists,UNKNOWN,Visible,True,Harris Sidelsky Dental Practice,1005a Finchley Road,London,,Golders Green,,NW11 7HB,51.578098297119141,-0.19786320626735687,Q71,London Area Team,020 8458 1611,,,
2945,V07643,Dentists,UNKNOWN,Visible,True,Honor Oak Dental Clinic,Honor Oak,76 St Norbert Road,,London,,SE4 2EY,51.462913513183594,-3.8733974099159241E-2,Q71,London Area Team,020 7635 8899,honaroak@southerndental.co.uk,http://www.southerndental.co.uk/,
2947,V05768,Dentists,UNKNOWN,Visible,True,Ottery St Mary Dental Practice,Dental Surgery,Yonder Close,,Ottery St Mary,Devon,EX11 1HE,50.7509765625,-3.2757785320281982,Q66,Devon, Cornwall And Isles Of Scilly Area Team,01404 812721,osmdentalpractice@gmail.com,,
2948,V07688,Dentists,UNKNOWN,Visible,True,Dental Department St Andrews Hospital,Billing Road,,,Northampton,,NN1 5DG,52.237823486328125,-0.87398797273635864,Q58,Hertfordshire And The South Midlands Area Team,01604 616254,,,
2949,V07728,Dentists,UNKNOWN,Visible,True,Kingsthorpe Grove Dental Practice,3 Kingsthorpe Grove,Kingsthorpe,,Northampton,Northamptonshire,NN2 6NS,52.2589111328125,-0.89831751585006714,Q58,Hertfordshire And The South Midlands Area Team,01604 719955,kingsthorpegroveds@gmail.com,,
2950,V08315,Dentists,UNKNOWN,Visible,False,Swaby's Dental Practice,10-11 Swabys Yard,Walkergate,Beverley,N Humberside,,HU17 9BZ,53.843051910400391,-0.43097636103630066,Q50,North Yorkshire And Humber Area Team,01482 335205,,,
2956,V10197,Dentists,UNKNOWN,Visible,True,South East Essex Community Dental Service,Warrior House,42-82 Southchurch Road,,Southend-on-Sea,Essex,SS1 2LZ,51.540542602539063,0.71591377258300781,Q57,Essex Area Team,01702 456819,,,01702 577041
2959,V07943,Dentists,UNKNOWN,Visible,True,Mr MA Proud Dental Surgery,73 Weedon Road,Northampton,,Northampton,,NN5 5BG,52.240932464599609,-0.91919320821762085,Q58,Hertfordshire And The South Midlands Area Team,01604 581728,,,01604 753626
2960,V11905,Dentists,UNKNOWN,Visible,True,Leighton House Dental Practice,8a North Street,,,Leighton Buzzard,,LU7 1EN,51.918113708496094,-0.66030538082122803,Q58,Hertfordshire And The South Midlands Area Team,01525 850058,reception@lbdentalcentre.co.uk,http://www.lbdentalcentre.co.uk,01525 850887
2964,V00178,Dentists,UNKNOWN,Visible,True,mydentist, High Street, Higham Ferrers,40 High Street,,,Higham Ferrers,,NN10 8BL,52.3046875,-0.59466522932052612,Q58,Hertfordshire And The South Midlands Area Team,01933 411499,highamferrers-pm@mydentist.co.uk,https://www.mydentist.co.uk,
2969,V12696,Dentists,UNKNOWN,Visible,True,Bridge Dental,58 Watling Street,,,Towcester,,NN12 6AF,52.129867553710937,-0.98554831743240356,Q58,Hertfordshire And The South Midlands Area Team,01327 358214,bridge_dental@btconnect.com,,
2979,V12375,Dentists,UNKNOWN,Visible,True,Faces and Smiles,Sainsbury's,Pound Lane,Norwich,Norfolk,,NR7 0SR,52.630836486816406,1.3614341020584106,Q56,East Anglia Area Team,01603 700355,facesandsmile@plummers.co.uk,http://www.plummers.co.uk,01603 700369
2981,V05072,Dentists,UNKNOWN,Visible,True,Central London Community Healthcare - Colville Health centre,,51 Kensington Park Road,,North Kensington,,W11 1PA,51.515811920166016,-0.20626072585582733,Q71,London Area Team,0207 792 6141,,,
2982,V12707,Dentists,UNKNOWN,Visible,True,Burgess & Hyder - The Dental Health Centre,Firthmoor Community Centre,Burnside Road,Darlington,Co Durham,,DL1 4SU,54.515571594238281,-1.5249335765838623,Q45,Durham, Darlington And Tees Area Team,01325 381 519,,,
2983,V12100,Dentists,UNKNOWN,Visible,True,Burgess & Hyder Dental Practice,39 North End,Sedgefield,,Cleveland,,TS21 2AZ,54.654991149902344,-1.4515769481658936,Q45,Durham, Darlington And Tees Area Team,01740 629 006,,,
2989,V04341,Dentists,UNKNOWN,Visible,True,Dearne Valley Dental Practice,55 High Street,Goldthorpe,,Rotherham,,S63 9LQ,53.531459808349609,-1.3039357662200928,Q51,South Yorkshire And Bassetlaw Area Team,01709 893000,dearnevalleydental@nhs.net,,01709 893555
2990,V13563,Dentists,UNKNOWN,Visible,True,Grimethorpe and Shafton Dental Practice,Cemetery Road,Grimethorpe,,Barnsley,,S72 7ND,53.576190948486328,-1.3764033317565918,Q51,South Yorkshire And Bassetlaw Area Team,01226 718345,grimethorpeshaftondentalpractice@nhs.net,,01226 710963
2991,V04966,Dentists,UNKNOWN,Visible,True,Darfield Dental Practice,16 School Street,Darfield,,Barnsley,South Yorkshire,S73 9ET,53.534576416015625,-1.3719151020050049,Q51,South Yorkshire And Bassetlaw Area Team,01226 756677,darfielddental@nhs.net,http://www.darfielddentalpractice.co.uk/,
2992,V10359,Dentists,UNKNOWN,Visible,True,Oasis Dental care - Oakley Vale,Units 6 and 7 Butland Road,Corby,,Corby,,NN18 8QT,52.473430633544922,-0.70699137449264526,Q58,Hertfordshire And The South Midlands Area Team,01536 744525,oakleyvale@oasisdentalcare.com,http://oakleyvaledental.co.uk,
2993,V09720,Dentists,UNKNOWN,Visible,True,Trestone Orthodontic & Minor Oral Surgery Practice,Trestone Orthodontic Practice,Tresparret,Camelford,Cornwall,,PL32 9ST,50.696247100830078,-4.6284055709838867,Q66,Devon, Cornwall And Isles Of Scilly Area Team,01840 261109,info@trestonedental.co.uk ,http://www.trestonedental.co.uk,01840 261109
2994,V13470,Dentists,UNKNOWN,Visible,True,Mr F Jamall - Pennington Dental,Stratford Healthcare,Arden Street,Stratford Upon Avon,Warwickshire,,CV37 6HJ,52.194961547851563,-1.7126997709274292,Q53,Arden, Herefordshire And Worcestershire Area Team,01789 205 254,stratford@penningtondental.co.uk,,
2995,V03371,Dentists,UNKNOWN,Visible,True,Cricklewood Dental Surgery,Cricklewood Dental Practice,165 Cricklewood Broadway,Cricklewood,London,,NW2 3HY,51.555992126464844,-0.21480698883533478,Q71,London Area Team,020 8452 5504,cricklewooddentalpractice@yahoo.co.uk,http://www.smileandbeauty.co.uk/,
2996,V11530,Dentists,UNKNOWN,Visible,True,Langdon Hills Dental Care,1 Alpha House, High Road,Langdon Hills,,Basildon,Essex,SS16 6HG,51.561901092529297,0.42166689038276672,Q57,Essex Area Team,01268 419845,reception@langdonhillsdentalcare.co.uk,http://www.langdonhillsdentalcare.co.uk,
2997,V13229,Dentists,UNKNOWN,Visible,True,River Practice Ltd (Orthodontics),Castle Mews,10 Castle Street,Truro,Cornwall,,TR1 3AF,50.264411926269531,-5.0553913116455078,Q66,Devon, Cornwall And Isles Of Scilly Area Team,01872 242444,jpeak@riverpractice.co.uk,,08712 214892
2998,V09056,Dentists,UNKNOWN,Visible,True,Wight Dental Care,Tower House, Rink Road,,Ryde,Isle Of Wight,,PO33 1LP,50.727729797363281,-1.1539416313171387,Q70,Wessex Area Team,01983 617791,reception@wightdentalcare.co.uk,,
2999,V13415,Dentists,UNKNOWN,Visible,True,mydentist, Bures Road, Great Cornard,,178 Bures Road,Great Cornard,Sudbury,Suffolk,CO10 0JQ,52.0218505859375,0.74548202753067017,Q56,East Anglia Area Team,01787 375917,sudbury2-pm@mydentist.co.uk,https://www.mydentist.co.uk,
3000,V00386,Dentists,UNKNOWN,Visible,True,Woodbridge Dental Surgery Ltd,,1 Woodbridge Road East,,Ipswich,Suffolk,IP4 5QP,52.060672760009766,1.1948028802871704,Q56,East Anglia Area Team,01473 728886,woodbridgeroaddentalsurgery@gmail.com,,01473 728886
3001,V11094,Dentists,UNKNOWN,Visible,True,St John's Dental Practice,Inch Arran House,Ringhill Street,Poundbury,DORCHESTER,Dorset,DT1 3BX,50.715446472167969,-2.467512845993042,Q70,Wessex Area Team,01305 265559,practice@stjohns-dentapol.co.uk,http://www.dentapol.co.uk/dentapol/dentapol.html,
3003,V13358,Dentists,UNKNOWN,Visible,True,Orchid Dental,,47 Holly Road,Kesgrave,Ipswich,Suffolk,IP5 1HX,52.0621337890625,1.2211141586303711,Q56,East Anglia Area Team,01473 610160,orchid.dental@gmail.com,,
3006,V00997,Dentists,UNKNOWN,Visible,True,Christchurch Dental Centre,Christchurch Dental Centre,16a Arthur Road,Off Stour Road,Christchuch,Dorset,BH23 1PU,50.737533569335938,-1.7857680320739746,Q70,Wessex Area Team,01202478973,christchurchpm@idhgroup.co.uk,https://www.mydentist.co.uk,01202482289
3008,V14152,Dentists,UNKNOWN,Visible,True,Red Lodge Dental Surgery,,18 Boundary Road,Red Lodge,Bury St Edmunds,Suffolk,IP28 8JQ,52.307830810546875,0.49376460909843445,Q56,East Anglia Area Team,01638 750905,reception@redlodgedentalsurgery.co.uk,http://www.redlodgedentalsurgery.co.uk,
3009,V11759,Dentists,UNKNOWN,Visible,True,Sherborne Dental Centre,Yeatman Hospital,Hospital Lane,,SHERBORNE,Dorset,DT9 3JF,50.949424743652344,-2.5195136070251465,Q70,Wessex Area Team,01935 817827,,http://www.sherbornedentalcentre.com,
3010,V05504,Dentists,UNKNOWN,Visible,True,ADP Rushden,,160 Newton Road,,Rushden,Northamptonshire,NN10 0PG,52.288978576660156,-0.59680444002151489,Q58,Hertfordshire And The South Midlands Area Team,01933317834,rushden-pm@idhgroup.co.uk,https://www.mydentist.co.uk,01933319168
3012,V13179,Dentists,UNKNOWN,Visible,True,Shirebrook Dental Care,29 Station Road,,Shirebrook,Nottinghamshire,,NG20 8TA,53.204360961914062,-1.2053878307342529,Q55,Derbyshire And Nottinghamshire Area Team,01623 744025,,,
3015,V09395,Dentists,UNKNOWN,Visible,True,Mr T Mirza,Malvern Spring Dental Practice,58 Spring Lane,,Malvern,Worcestershire,WR14 1AJ,52.126995086669922,-2.3104515075683594,Q53,Arden, Herefordshire And Worcestershire Area Team,01684 567111,malvernspring.dental@nhs.net,http://www.malvern-dentist.co.uk/,01684 767211
3016,V05522,Dentists,UNKNOWN,Visible,True,Cornhill Dental Centre,,22 Cornhill,Market Place,Banbury,Oxfordshire,OX16 5NG,52.062702178955078,-1.336382269859314,Q69,Thames Valley Area Team,01295 258400,banbury2-rec@idhgroup.co.uk,https://www.mydentist.co.uk,
3017,V09229,Dentists,UNKNOWN,Visible,True,Billericay Dental Care,Crown Yard,High Street,Billericay,Essex,,CM12 9BX,51.624523162841797,0.41760310530662537,Q57,Essex Area Team,01277 625456,,http://www.billericaydentalcare.co.uk,01277 625570
3018,V09421,Dentists,UNKNOWN,Visible,True,Community Dental Service - Ashfields - Sandbach,Middlewich Road,Sandbach,,Cheshire,,CW11 1EQ,53.1446533203125,-2.3675611019134521,Q44,Cheshire, Warrington And Wirral Area Team,01270 275151,,,
3021,V04747,Dentists,UNKNOWN,Visible,False,Mr SW Greaves,Dental Surgery,Roke Lane,Witley,Godalming,,GU8 5NA,51.153957366943359,-0.64793407917022705,Q68,NHS England - South (South East),01428 684284,,,
3022,V09785,Dentists,UNKNOWN,Visible,True,Church Street Dental,6a Church Street,Somersham,Huntingdon,Cambridgeshire,,PE28 3EG,52.380966186523438,-2.6227002963423729E-3,Q56,East Anglia Area Team,01487 843023,,,
3024,V00998,Dentists,UNKNOWN,Visible,True,Stephen House Dental Practice,Suite B,23a Bargates,,CHRISTCHURCH,Dorset,BH23 1QD,50.736522674560547,-1.7793248891830444,Q70,Wessex Area Team,01202 485993,,,
3025,V08055,Dentists,UNKNOWN,Visible,False,Mr Schnel,1 White Hart Lane,,Hockley,Essex,,SS5 4DQ,51.599559783935547,0.6626090407371521,Q57,Essex Area Team,01702 206640,,,
3654,V14206,Dentists,UNKNOWN,Visible,True,Bridge Park Dental Practice,,Unit 12 Great Bridge Street,,West Bromwich,,B70 0EN,52.529666900634766,-2.0296297073364258,Q54,Birmingham And The Black Country Area Team,0330 123 9118,,,
4443,V02713,Dentists,UNKNOWN,Visible,True,Dr Issa & Partners,179 New Line,Greengates,,Bradford,,BD10 0BN,53.830097198486328,-1.708325982093811,Q52,West Yorkshire Area Team,01274 615852,,,
4444,V11005,Dentists,UNKNOWN,Visible,True,Carnegie Dental Clinic Limited,,9-13 Leeds Road,,Shipley,,BD18 1BP,53.834571838378906,-1.7677987813949585,Q52,West Yorkshire Area Team,01274 590777,contact@carnegieclinic.com,http://www.carnegieclinic.com,
4445,V08344,Dentists,UNKNOWN,Visible,True,Saltaire Orthodontics,Saltaire Orthodontics,4 Victoria Road,,Shipley,,BD18 3LA,53.838420867919922,-1.7889916896820068,Q52,West Yorkshire Area Team,01274 531567,,http://www.saltaireorthodontics.co.uk,
4447,V02960,Dentists,UNKNOWN,Visible,True,A One Dental Practice,983 Leeds Road,983 Leeds Road,,Bradford,,BD3 7ND,53.799327850341797,-1.7101790904998779,Q52,West Yorkshire Area Team,01274 664635,,,
4450,V10590,Dentists,UNKNOWN,Visible,True,Marlborough Road Dental Practice,5 Marlborough Road,Manningham,,Bradford,,BD8 7LD,53.806102752685547,-1.7663615942001343,Q52,West Yorkshire Area Team,01274 546673,,,
4451,V14084,Dentists,UNKNOWN,Visible,True,Summerville Road Dental Practice,Grange Interlink Community Centre,Summerville Road,,Bradford,,BD7 1PX,53.7894287109375,-1.7708559036254883,Q52,West Yorkshire Area Team,01274 423197,,,
4453,V13304,Dentists,UNKNOWN,Visible,True,Corner House Dental Practice,10 King Square,,,Bridgwater,,TA6 3DG,51.129367828369141,-3.0035288333892822,Q65,Bristol, North Somerset, Somerset And South Gloucestershire Area Team,01278 422140,,,
4454,V13980,Dentists,UNKNOWN,Visible,True,Taunton Road Dental Practice,14 King Street,,,Bridgwater,,TA6 3ND,51.12835693359375,-3.0018634796142578,Q65,Bristol, North Somerset, Somerset And South Gloucestershire Area Team,01278 458004,,,
4455,V14141,Dentists,UNKNOWN,Visible,True,Ferndown Dental Practice,,400/402 Ringwood Road,,FERNDOWN,Dorset,BH22 9AU,50.800800323486328,-1.8905569314956665,Q70,Wessex Area Team,01202 896156,,,
4456,V13175,Dentists,UNKNOWN,Visible,True,Christchurch Orthodontics,,67 Stour Road,,CHRISTCHURCH,Dorset,BH23 1LN,50.735458374023438,-1.7857916355133057,Q70,Wessex Area Team,01202 483768,info@christchurchorthodontics.co.uk,http://www.christchurchorthodontics.co.uk/,
4457,V14531,Dentists,UNKNOWN,Visible,True,Avon Dental Practice,Avon Dental Practice, Forest Dene,Christchurch Hospital,Fairmile Road,CHRISTCHURCH,Dorset,BH23 2JX,50.744682312011719,-1.7902424335479736,Q70,Wessex Area Team,01202 481018,,,
4461,V08259,Dentists,UNKNOWN,Visible,True,Synergy Dental Clinic,,10 Tenterden Street,,Bury,Lancashire,BL9 0EG,53.591270446777344,-2.3009359836578369,Q46,Greater Manchester Area Team,0161 764 4366,bury@synergydental.org.uk,http://synergydental.org.uk/dentist-in-bury/,
4478,V05754,Dentists,UNKNOWN,Visible,True,Budleigh Salterton Dental Practice,,11 Station Road,,Budleigh Salterton,Devon,EX9 6RW,50.632175445556641,-3.3283555507659912,Q66,Devon, Cornwall And Isles Of Scilly Area Team,01395 442552,bsdp@btinternet.com,http://www.devondentalimplants.com,
5517,V04444,Dentists,UNKNOWN,Visible,True,Bramcote Dental Practice,Bramcote,Woodcock Street,,Castle Cary,,BA7 7BJ,51.088962554931641,-2.5150191783905029,Q65,Bristol, North Somerset, Somerset And South Gloucestershire Area Team,01963 350123,,,01963 351853
5518,V01242,Dentists,UNKNOWN,Visible,True,Camborne Dental Practice,,22 Chapel Street,,Camborne,Cornwall,TR14 8ED,50.213077545166016,-5.2993607521057129,Q66,Devon, Cornwall And Isles Of Scilly Area Team,01209 611832,info@cambornedentalpractice.co.uk,http://www.cambornedentalpractice.co.uk/,
5519,V08039,Dentists,UNKNOWN,Visible,True,C Carre,Unit U43,Stretford Mall,,Stretford,,M32 9BB,53.445209503173828,-2.3108022212982178,Q46,Greater Manchester Area Team,0161 865 2431,,,
5523,V01971,Dentists,UNKNOWN,Visible,True,Brookfields Community Dental Services,,Brookfields Health Centre,Seymour Street,Cambridge,Cambridgeshire,CB1 3DQ,52.198272705078125,0.15422341227531433,Q56,East Anglia Area Team,01223 723100,,,01223 723101
5524,V04124,Dentists,UNKNOWN,Visible,True,Centre Point Dental Practice,Flat 4, Shaldon Mansions,132 Charing Cross Road,,London,,WC2H 0LA,51.515308380126953,-0.12983578443527222,Q71,London Area Team,02078369259,centrepointdental@gmail.com,,
5526,V04458,Dentists,UNKNOWN,Visible,True,Springside Dental Practice,33a Fore Street,,,Chard,,TA20 1PT,50.872825622558594,-2.9632158279418945,Q65,Bristol, North Somerset, Somerset And South Gloucestershire Area Team,01460 61671,,,
5527,V12273,Dentists,UNKNOWN,Visible,True,mydentist, High Street, Cheadle ,,19a High Street,,Cheadle,Cheshire,SK8 1AX,53.394790649414063,-2.2141764163970947,Q46,Greater Manchester Area Team,01614911936,cheadle-pm@mydentist.co.uk,https://www.mydentist.co.uk,01614284746
5528,V12811,Dentists,UNKNOWN,Visible,True,Circle Dental Care Ltd,16a The Circle,Barton Road,Stretford,Manchester,,M32 9TR,53.456512451171875,-2.3364713191986084,Q46,Greater Manchester Area Team,0161 748 2605,info@circledental.com,,0161 748 4596
5529,V12932,Dentists,UNKNOWN,Visible,True,The Crewkerne Dental Centre Ltd,4 Bere Court,Old Mill Lane,,Crewkerne,,TA18 7BN,50.890819549560547,-2.7948362827301025,Q65,Bristol, North Somerset, Somerset And South Gloucestershire Area Team,01460 75210,info@crewkernedental.co.uk,,
5565,V04624,Dentists,UNKNOWN,Visible,True,Prettygate Dental,Prettygate Dental,306 Mersea Road,,Colchester,Essex,CO2 8QY,51.865646362304688,0.90815699100494385,Q57,Essex Area Team,01206 548386,enquiry@prettygatedental.co.uk,,
5613,V10212,Dentists,UNKNOWN,Visible,True,Kentish Town Urgent Dental Service and Whittington Health NHS Oral Surgery Service (Camden),Whittington Health NHS,Kentish Town Health Centre,2 Bartholomew Road,London,,NW5 2BX,51.546199798583984,-0.13996323943138123,Q71,London Area Team,0203 317 2014,,http://www.camdenccg.nhs.uk/publications/urgent-dental-service,0207 813 8679
5618,V06091,Dentists,UNKNOWN,Visible,True,Holywell House Nuneaton,115 Manor Court Road,,Nuneaton,Warwickshire,,CV11 5HQ,52.524265289306641,-1.4795095920562744,Q53,Arden, Herefordshire And Worcestershire Area Team,024 76353450,,,
5619,V12378,Dentists,UNKNOWN,Visible,True,Accessible Orthodontics,1 Back Street,Nuneaton,,Warks,,CV11 4DG,52.524494171142578,-1.4645466804504395,Q53,Arden, Herefordshire And Worcestershire Area Team,02476 329 763,nuneaton@accessible-orthodontics.co.uk,http://www.accessible-orthodontics.co.uk,02476 350 146
5620,V12603,Dentists,UNKNOWN,Visible,True,Wood End Dental Practice,Deedmore Road,Wood End,,Coventry,West Midlands,CV2 1XA,52.435447692871094,-1.4645229578018188,Q53,Arden, Herefordshire And Worcestershire Area Team,024 76619286,,,
5622,V10935,Dentists,UNKNOWN,Visible,True,Holywell House Rugby,135 Clifton Road,,Rugby,Warwickshire,,CV21 3QN,52.372623443603516,-1.2477444410324097,Q53,Arden, Herefordshire And Worcestershire Area Team,01788 572338,,,
5623,V10298,Dentists,UNKNOWN,Visible,True,Stoke Aldermoor Dental Surgery,Aldermoor Lane,Stoke Aldermoor,,Coventry,West Midlands,CV3 1BN,52.402145385742187,-1.479550838470459,Q53,Arden, Herefordshire And Worcestershire Area Team,024 76459510,,,
5625,V06116,Dentists,UNKNOWN,Visible,True,Leamington Spa Orthodontic Centre,21 Waterloo Place,,Leamington Spa,Warwickshire,,CV32 5LA,52.292087554931641,-1.5387113094329834,Q53,Arden, Herefordshire And Worcestershire Area Team,01926 883476,,http://leamingtonspaorthodontics.com,
5626,V06138,Dentists,UNKNOWN,Visible,True,Brook House Dental Practice,Moreton Morrell,,Warwick,Warwickshire,,CV35 9AR,52.200595855712891,-1.5460673570632935,Q53,Arden, Herefordshire And Worcestershire Area Team,01926 651400,,,
5627,V10046,Dentists,UNKNOWN,Visible,True,Family Dental Practice,10 Sheep Street,Shipston On Stour,,Warwickshire,,CV36 4AF,52.063560485839844,-1.6249570846557617,Q53,Arden, Herefordshire And Worcestershire Area Team,01608 661300,,,
5628,V06154,Dentists,UNKNOWN,Visible,False,Stratford Orthodontic Centre,6 Rother Street,,Stratford Upon Avon,Warwickshire,,CV37 6LU,52.192348480224609,-1.7104784250259399,Q53,Arden, Herefordshire And Worcestershire Area Team,01789 295511,,,
5630,V07089,Dentists,UNKNOWN,Visible,True,Canley Dental Surgery ,5 Mayors Croft,Canley,,Coventry,,CV4 8FF,52.393798828125,-1.5631048679351807,Q53,Arden, Herefordshire And Worcestershire Area Team,024 7646 6793,,,
5631,V12602,Dentists,UNKNOWN,Visible,True,Tile Hill Dental Practice,Jardine Crescent,Tile Hill,,Coventry,West Midlands,CV4 9PN,52.406837463378906,-1.5785433053970337,Q53,Arden, Herefordshire And Worcestershire Area Team,024 76694215,,,
5632,V12631,Dentists,UNKNOWN,Visible,True,Pennington Dental - Southam,Vivian House, 21 Market Hill,,Southam,Warwickshire,,CV47 0HF,52.252487182617187,-1.3886640071868896,Q53,Arden, Herefordshire And Worcestershire Area Team,01926 815731,,http://www.penningtondental.co.uk,
5639,V08760,Dentists,UNKNOWN,Visible,True,Community Dental Service - Nantwich,Dental Clinic,Church View Health Centre,,Nantwich,,CW5 5NX,53.068161010742188,-2.5185520648956299,Q44,Cheshire, Warrington And Wirral Area Team,01270 275709,,,
5641,V09556,Dentists,UNKNOWN,Visible,True,Community Dental Service - Winsford ,Dene Drive,,Winsford,,Cheshire,,CW7 1BD,53.190628051757812,-2.5283505916595459,Q44,Cheshire, Warrington And Wirral Area Team,01606 544188,,,
5642,V08769,Dentists,UNKNOWN,Visible,True,Emergency Dental Service - Northwich,Victoria Infirmary,Victoria Informary,,Northwich,,CW8 1AN,53.262149810791016,-2.5192928314208984,Q44,Cheshire, Warrington And Wirral Area Team,0161 476 9651,,,
5643,V09336,Dentists,UNKNOWN,Visible,True,Community Dental Service - Northwich,Victoria Infirmary,Winnington Hill,,Northwich,,CW8 1AW,53.261959075927734,-2.5198001861572266,Q44,Cheshire, Warrington And Wirral Area Team,01606 564010,,,
5646,V12078,Dentists,UNKNOWN,Visible,True,PERFECT SMILE CLINIC,252-254 Easterly Road,Oakwood,,Leeds,West Yorkshire,LS8 3ES,53.820499420166016,-1.4965373277664185,Q52,West Yorkshire Area Team,0113 2486777,,http://www.perfectsmileclinic.co.uk,
5647,V02747,Dentists,UNKNOWN,Visible,True,Indigo Dental,106a Dixon Lane,106a Dixon Lane,,Leeds,,LS12 4AD,53.783237457275391,-1.5868438482284546,Q52,West Yorkshire Area Team,0113 2632960,,,
5648,V12642,Dentists,UNKNOWN,Visible,True,Dentistry@BD4,Tyrone House,134 Holme Lane,,Bradford,,BD4 0PU,53.768474578857422,-1.7066744565963745,Q52,West Yorkshire Area Team,01274 688600,,,
5649,V25140,Dentists,UNKNOWN,Visible,False,Orthodontic Practice,1a Bell Alley,,Leighton Buzzard,Beds,,LU7 1DG,51.915828704833984,-0.66108578443527222,Q58,Hertfordshire And The South Midlands Area Team,01525 383065,,http://www.smilecreations.co.uk,
5650,V10787,Dentists,UNKNOWN,Visible,True,Synergy Dental Practice,Synergy Dental Clinic,370 Central Drive,,Blackpool,,FY1 6LA,53.800678253173828,-3.0433392524719238,Q47,Lancashire Area Team,01253 348616,info@synergydental.org.uk,http://www.synergydental.org.uk/dentist-in-blackpool/,
5652,V01892,Dentists,UNKNOWN,Visible,True,Mr H R Letuka,Belks Court,Pontefract,,West Yorkshire,,WF8 1DF,53.691612243652344,-1.3139731884002686,Q52,West Yorkshire Area Team,01977702054,,,
5755,V01882,Dentists,UNKNOWN,Visible,True,Mr A W Robinson,295 New Hall Lane,Preston,Lancs,,,PR1 5XE,53.765430450439453,-2.6699976921081543,Q47,Lancashire Area Team,01772 794468,,,01772 797642
6048,V08264,Dentists,UNKNOWN,Visible,True,The Dental Practice,72 Bridge Street,Ramsbottom,Bury,Lancs,,BL0 9AG,53.648483276367187,-2.3178632259368896,Q46,Greater Manchester Area Team,01706 827755,,,
6051,V12285,Dentists,UNKNOWN,Visible,True,DCO Dental,53c Mainwood Road,Timperley,,Altrincham,,WA15 7JW,53.392379760742188,-2.3129279613494873,Q46,Greater Manchester Area Team,0161 980 6745,dcodental@chessmail.co.uk,http://www.dcodental.co.uk,0161 903 9029
6052,V11266,Dentists,UNKNOWN,Visible,True,Glodwick Dental Practice,1st Floor, Glodwick Primary Care Centre,137 Glodwick Road,Glodwick,Oldham,,OL4 1YN,53.537708282470703,-2.0950648784637451,Q46,Greater Manchester Area Team,0161 622 9074,,,0161 633 6595
6053,V12564,Dentists,UNKNOWN,Visible,True,Williams Place NHS Dental Practice ,William Place,Bow,,London,,E3 5ED,51.532215118408203,-3.0897781252861023E-2,Q71,London Area Team,020 8821 2830,reception@williamplacedental.co.uk,http://www.williamplacedental.co.uk/,
6054,V08898,Dentists,UNKNOWN,Visible,True,mydentist, Newland Avenue, Hull,,239-243 Newland Avenue,,Hull,,HU5 2EJ,53.767753601074219,-0.35875654220581055,Q50,North Yorkshire And Humber Area Team,01482 337070,hull-pm@mydentist.co.uk,https://www.mydentist.co.uk,01482337074
6056,V09139,Dentists,UNKNOWN,Visible,True,Dr F C Heylings,882 Spring Bank West,Hull,,N Humberside,,HU5 5AW,53.750347137451172,-0.39224013686180115,Q50,North Yorkshire And Humber Area Team,01482 354124,,,
6058,V08840,Dentists,UNKNOWN,Visible,True,The Lund Dental Practice,738 Beverley Road,Hull,,N Humberside,,HU6 7JG,53.775672912597656,-0.3559437096118927,Q50,North Yorkshire And Humber Area Team,01482 853146,info@lunddental.co.uk,,
6059,V10951,Dentists,UNKNOWN,Visible,True,IDH Marfleet,,Marfleet Primary Care Centre,Preston Road,Hull,Yorkshire,HU9 5HH,53.755985260009766,-0.26597407460212708,Q50,North Yorkshire And Humber Area Team,01482 344325,marfleet-rec@idhgroup.co.uk,https://www.mydentist.co.uk,
6060,V11641,Dentists,UNKNOWN,Visible,True,mydentist, Hessle High Road, Hull,1133 Hessle Road,,,Hull,,HU4 6SB,53.728401184082031,-0.40411293506622314,Q50,North Yorkshire And Humber Area Team,01482 347350,hull2-rec@mydentist.co.uk,https://www.mydentist.co.uk,
6061,V04945,Dentists,UNKNOWN,Visible,True,Kings Specialist Dental Practice Partnership,Kings Specialist Dental Practice,Midland Bank Chambers,3 Market Hill,Barnsley,South Yorkshire,S70 2PU,53.553245544433594,-1.4821590185165405,Q51,South Yorkshire And Bassetlaw Area Team,01226200025,barnsley6-pm@idhgroup.co.uk,http://idhgroup.co.uk/,01226733683
6062,V05698,Dentists,UNKNOWN,Visible,True,mydentist, Burnby Lane, Pocklington ,3 Burnby Lane,Pocklington,,York,,YO42 2QB,53.929836273193359,-0.7727351188659668,Q50,North Yorkshire And Humber Area Team,01759 307800,,https://www.mydentist.co.uk,
6063,V09127,Dentists,UNKNOWN,Visible,True,Willerby Dental Care,81 Kingston Road,,,Willerby,Yorkshire(East Riding),HU10 6AH,53.755794525146484,-0.4404526948928833,Q50,North Yorkshire And Humber Area Team,01482 656656,appointments@willerbydentalcare.co.uk,http://www.willerbydentalcare.co.uk,
6064,V04026,Dentists,UNKNOWN,Visible,False,New Road Dental Surgery,6 New Road,Driffield,N Humberside,,,YO25 5DL,54.0069580078125,-0.4361092746257782,Q50,North Yorkshire And Humber Area Team,01377 254194,,,
6065,V05226,Dentists,UNKNOWN,Visible,True,Perfect 32 Dental Practice,8 Ladygate,Beverley,N Humberside,,,HU17 8BH,53.843563079833984,-0.43234038352966309,Q50,North Yorkshire And Humber Area Team,01482 863667,,,
6066,V11796,Dentists,UNKNOWN,Visible,True,Apex Dental Care Ltd,,9 Bury Road,,Brandon,Suffolk,IP27 0BU,52.445945739746094,0.62409043312072754,Q56,East Anglia Area Team,01842 812276,brandon@apex-dental.co.uk,,01842 819425
6067,V02179,Dentists,UNKNOWN,Visible,True,Wapping Dental Centre,Wapping Dental Centre,172 The Highway,Wapping,London,,E1W 3DD,51.50970458984375,-5.8545973151922226E-2,Q71,London Area Team,020 7481 1013,,http://www.wappingdentalcentre.com,
6069,V02206,Dentists,UNKNOWN,Visible,True,Chrisp Street Dental Centre,24 Market Way,Poplar,London,,,E14 6AH,51.513191223144531,-0.01511541660875082,Q71,London Area Team,020 7093 0959,,,020 7093 0997
6070,V02732,Dentists,UNKNOWN,Visible,True,Manor Orthodontic and Implant Clinic,48 Woodberry Grove,London,, Finsbury Park,,N4 1SN,51.5726318359375,-9.3326061964035034E-2,Q71,London Area Team,020 8800 8581,manorsdc@aol.com,,0208 8022403
6071,V01678,Dentists,UNKNOWN,Visible,False,Newcastle PCT Dental Services,Address Only Available By Contacting NHS Direct,,Newcastle Upon Tyne,,,NE6 2UZ,54.979679107666016,-1.5760492086410522,Q49,Cumbria, Northumberland, Tyne And Wear Area Team,Ring NHS Direct 0845 4647,,,
6072,V08077,Dentists,UNKNOWN,Visible,True,Cairn Brae Dental Practice,2 Maldon Road,,,Witham,Essex,CM8 2AB,51.799083709716797,0.64088916778564453,Q57,Essex Area Team,01376 501688,,http://www.cairnbraedental.co.uk/,
6074,V06069,Dentists,UNKNOWN,Visible,True,Dentaire Dental Care,96a-100a Market Street,Hednesford,,Cannock,Staffordshire,WS12 1AG,52.709285736083984,-1.9990547895431519,Q60,Shropshire And Staffordshire Area Team,01543 871616,tony@dentaire.co.uk,http://www.dentaire.co.uk,
6075,V03202,Dentists,UNKNOWN,Visible,True,Phoenix Orthodontic Practice,13/14 Mary Rose Mall,Beckton,,London,,E6 5LX,51.514514923095703,5.7827390730381012E-2,Q71,London Area Team,020 7473 4411,,,0207 511 2272
6076,V05928,Dentists,UNKNOWN,Visible,True,Wilmslow Dental Practice,26 Chapel Lane,Wilmslow,,Cheshire,,SK9 5HZ,53.322750091552734,-2.2402522563934326,Q44,Cheshire, Warrington And Wirral Area Team,01625 441763,,,01625 441764
6077,V12170,Dentists,UNKNOWN,Visible,True,The Brace Orthodontic Practice,,15 Artillery Passage,,London,,E1 7LJ,51.518085479736328,-7.7386170625686646E-2,Q71,London Area Team,020 7247 5768,londoncity@thebrace.com,http://www.thebrace.com,
6078,V08070,Dentists,UNKNOWN,Visible,True,Braintree Dental Centre,9c Coggeshall Road,,Braintree,Essex,,CM7 9DB,51.880241394042969,0.55402708053588867,Q57,Essex Area Team,01376 321 061,braintree.dental1@btconnect.com,http://dentistinbraintree.co.uk/,01376 321061
6079,V04379,Dentists,UNKNOWN,Visible,False,Zabihi Helena,92 Cannon Lane,Pinner,Pinner,Middx,,HA5 1HP,51.585281372070313,-0.38237032294273376,Q71,London Area Team,020 8866 6007,,,
6080,V07154,Dentists,UNKNOWN,Visible,True,Bright Dental Practice,300 Kenton Road,Harrow,Middx,,,HA3 8DD,51.586254119873047,-0.30827102065086365,Q71,London Area Team,020 8907 7733,,,
6082,V07029,Dentists,UNKNOWN,Visible,True,Purely Orthodontics,1st Floor Office, Suite 4, Pembroke House,Northlands Pavement, Pitsea,,Basildon,,SS13 3DU,51.566162109375,0.50404369831085205,Q57,Essex Area Team,01268 556633,p.ortho@hotmail.co.uk,,01923 232444
6083,V07024,Dentists,UNKNOWN,Visible,True,Tan & Kazemi Orthodontic Practice,Suite E, Second Floor, Southgate House,Town Centre,,Basildon,,SS14 1BN,51.569923400878906,0.45831573009490967,Q57,Essex Area Team,01268 271219,drkazemi@btconnect.com,,
6084,V02655,Dentists,UNKNOWN,Visible,True,mydentist, Southfield Lane, Bradford,Southfield Lane Dental Centre,261 Southfield Lane,Great Horton,Bradford,Yorkshire,BD7 3NN,53.778846740722656,-1.7829927206039429,Q52,West Yorkshire Area Team,01274521190,bradford-pm@mydentist.co.uk,https://www.mydentist.co.uk,01274575519
6087,V05916,Dentists,UNKNOWN,Visible,True,East Finchley Smiles,144 High Road,London,London,London,,N2 9ED,51.590843200683594,-0.16435700654983521,Q71,London Area Team,020 8444 3436,info@eastfinchleysmiles.co.uk,,
6088,V05177,Dentists,UNKNOWN,Visible,True,Azure Dental Practice,,121 Bawtry Road,Tinsley,SHEFFIELD,,S9 1UF,53.412029266357422,-1.3965282440185547,Q51,South Yorkshire And Bassetlaw Area Team,0114 244 5278,,http://www.azuredentalpractice.co.uk/,
6089,V07158,Dentists,UNKNOWN,Visible,True,mydentist, New Queen Street, Scarborough,,1 New Queen Street,,Scarborough,North Yorkshire,YO12 7HL,54.286121368408203,-0.4003429114818573,Q50,North Yorkshire And Humber Area Team,01723378078,scarboroughnewqueenst-rec@mydentist.co.uk,https://www.mydentist.co.uk,
6090,V04996,Dentists,UNKNOWN,Visible,False,Balcombe Dental Practice,51 Goodwyn Avenue,London,,,,NW7 3RJ,51.615631103515625,-0.24707646667957306,Q71,London Area Team,020 8959 1907,,,
6091,V05910,Dentists,UNKNOWN,Visible,False,Gental Dental Care,2b Golders Green Road,London,,,,NW11 8LH,51.572090148925781,-0.19593630731105804,Q71,London Area Team,020 8455 9580,,,
6094,V10494,Dentists,UNKNOWN,Visible,True,Siskin Dental Access Centre,Bowthorpe Road,,Norfolk,Norwich,,NR2 3TU,52.633750915527344,1.262380838394165,Q56,East Anglia Area Team,01603 272350,,,
6095,V03535,Dentists,UNKNOWN,Visible,True,Southend Road Dental Surgery,166 South End Road,Rainham,,Essex,,RM13 7XR,51.533458709716797,0.19202814996242523,Q71,London Area Team,01708 555525,,,01708 555527
6096,V08500,Dentists,UNKNOWN,Visible,True,Smiles Dental Practice,196-198 Main Road,Biggin Hill,Westerham,Kent,,TN16 3BB,51.308349609375,3.8503643125295639E-2,Q71,London Area Team,01959 571999,,,01959 571991
6097,V06738,Dentists,UNKNOWN,Visible,True,Green Lane Dental Centre,Green Lane Dental Centre,17 Green Lane,Penge,London,,SE20 7JA,51.414726257324219,-5.0374977290630341E-2,Q71,London Area Team,0208 776 9776,,,
6098,V05613,Dentists,UNKNOWN,Visible,True,Mrs B Vaheeswaran & Associate,Chatterton Dental Surgery,51 Chatterton Road,,Bromley,Kent,BR2 9QQ,51.391426086425781,3.6707926541566849E-2,Q71,London Area Team,0208 460 0476,,,
6099,V05924,Dentists,UNKNOWN,Visible,True,Chelsfield Dental Practice,17 Windsor Drive,Chelsfield,Orpington,Kent,,BR6 6EY,51.356349945068359,0.10531101375818253,Q71,London Area Team,01689 889302,,,01689 889301
6100,V04973,Dentists,UNKNOWN,Visible,True,Corner House Dental Practice,2 Colin Park Road,London,,,,NW9 6HS,51.589897155761719,-0.25193613767623901,Q71,London Area Team,020 8205 8300,ffard@hotmail.com,,
6101,V05483,Dentists,UNKNOWN,Visible,True,Poundswick Lane Dental Practice,18 Poundswick Lane,Wythenshawe,,Manchester,,M22 9TD,53.382160186767578,-2.2603709697723389,Q46,Greater Manchester Area Team,0161 499 3141,info@poundswickdentalpractice.co.uk,http://www.poundswickdentalpractice.co.uk,0161 436 5150
6102,V08745,Dentists,UNKNOWN,Visible,True,Mr B Sanghera,Green Tree Dental Peterborough,95 Lincoln Road,,Peterborough,,PE1 2SJ,52.580204010009766,-0.24307540059089661,Q56,East Anglia Area Team,01733 562436,peterborough@greentreedental.co.uk,http://www.greentreedental.co.uk,
6103,V07838,Dentists,UNKNOWN,Visible,True,The Hamptons Dental Practice,,52 Hargate Way,Hampton Hargate,Peterborough,Cambridgeshire,PE7 8DS,52.538543701171875,-0.27200350165367126,Q56,East Anglia Area Team,01733 341777,diane.bowers@thepepperclinics.com,http://www.thepepperclinics.com,
6104,V07353,Dentists,UNKNOWN,Visible,True,Longford House Dental Practice,32 St andrew's Road,Shoeburyness,Southend On Sea,Essex,,SS3 9HZ,51.529788970947266,0.77965593338012695,Q57,Essex Area Team,01702 292615,,,01702 293184
6105,V02707,Dentists,UNKNOWN,Visible,True,mydentist, Russell Court, Bingley ,,Russell Court,Cottingley Business Park,Bingley,West Yorkshire,BD16 1PE,53.833099365234375,-1.8223855495452881,Q52,West Yorkshire Area Team,01274561166,,https://mydentist.co.uk/,01274561144
6106,V02067,Dentists,UNKNOWN,Visible,True,Regent Orthodontics,2a Regent Road,,,Ilkley,,LS29 9EA,53.925098419189453,-1.8276454210281372,Q52,West Yorkshire Area Team,01943 604 402,,http://www.regentorthodontics.co.uk,01943 604403
6107,V02698,Dentists,UNKNOWN,Visible,True,Barbican Orthodontic Clinic,84-85 Long Lane,Barbican,London,,,EC1A 9ET,51.519660949707031,-0.09852299839258194,Q71,London Area Team,020 7726 8282,,,
6108,V02170,Dentists,UNKNOWN,Visible,False,221 Dental Surgery,221 Whitechapel Road,Whitechapel,London,,,E1 1DE,51.518863677978516,-6.2276482582092285E-2,Q71,London Area Team,020 7247 5378,,,
6109,V02256,Dentists,UNKNOWN,Visible,True,Alba Dental Care,32 Toynbee Street,,London,,,E1 7NE,51.517772674560547,-7.4660830199718475E-2,Q71,London Area Team,020 7377 6886,,,020 7377 6886
6110,V04862,Dentists,UNKNOWN,Visible,True,Anna House Dental Clinic,214-218 High Road,London,,Tottenham,,N15 4NP,51.58258056640625,-7.1489453315734863E-2,Q71,London Area Team,020 8885 5777,annahouse@btconnect.com,http://www.emergencydentistnorthlondon.co.uk/,020 80 11 666
6111,V06902,Dentists,UNKNOWN,Visible,True,Dentalign Orthodontics Blackburn,19 Richmond Terrace,Blackburn,,Lancs,,BB1 7BL,53.750713348388672,-2.4839925765991211,Q47,Lancashire Area Team,01254 261161,reception.blackburn@dentaligngroup.co.uk,http://blackburn.dentalign.co.uk,01254 679498
6114,V02862,Dentists,UNKNOWN,Visible,True,Mr. C. E. P. Eves,103 Thorne Road,Doncaster,S Yorkshire,,,DN2 5BE,53.527732849121094,-1.1201061010360718,Q51,South Yorkshire And Bassetlaw Area Team,01302 327275,,,
6116,V07654,Dentists,UNKNOWN,Visible,True,Longsight Dental Practice ,7 Slade Lane,Longsight,Manchester,,,M13 0QJ,53.452857971191406,-2.1965944766998291,Q46,Greater Manchester Area Team,0161 257 3839,,,
6118,V06191,Dentists,UNKNOWN,Visible,True,The Dental Practice,569 Cheetham Hill Road,Cheetham Hill,,Manchester,,M8 9JE,53.511474609375,-2.2449536323547363,Q46,Greater Manchester Area Team,0161 740 3000,,,
6119,V05236,Dentists,UNKNOWN,Visible,True,Fresh Dental Health care LTD,3 Collingwood Road,Townstal,,Dartmouth,,TQ6 9JY,50.351264953613281,-3.5969209671020508,Q66,Devon, Cornwall And Isles Of Scilly Area Team,01803 835476,reception@freshdentalhealthcare.co.uk,http://www.freshdentalhealthcare.co.uk,01803 835476
6120,V06694,Dentists,UNKNOWN,Visible,True,Pure Dental Care,21 High Street,,,Totnes,,TQ9 5NP,50.431831359863281,-3.689323902130127,Q66,Devon, Cornwall And Isles Of Scilly Area Team,01803 862007,reception@puredentalcare.co.uk,http://www.puredentalcare.co.uk,01803 864578
6121,V06752,Dentists,UNKNOWN,Visible,True,mydentist, Primrose Junction, South Brent,,Primrose Junction,,South Brent,Devon,TQ10 9AL,50.427986145019531,-3.8351082801818848,Q66,Devon, Cornwall And Isles Of Scilly Area Team,0136473642,southbrent-pm@mydentist.co.uk,https://www.mydentist.co.uk,0136472632
6122,V09129,Dentists,UNKNOWN,Visible,True,Community Dental Service,Castle Circus Health Centre,Abbey Road,,Torquay,,TQ2 5YH,50.467632293701172,-3.5336096286773682,Q66,Devon, Cornwall And Isles Of Scilly Area Team,01803 217777,sdc-dental.t-sd@nhs.net,http://www.torbaycaretrust.nhs.uk/ourservices/communitydentalservice/pages/default.aspx,01803 389706
6123,V04428,Dentists,UNKNOWN,Visible,True,Ingrid Cubbon Dental Surgery,13 Dendy Road,13 Dendy Road,,Paignton,Devon,TQ4 5DB,50.436241149902344,-3.5664191246032715,Q66,Devon, Cornwall And Isles Of Scilly Area Team,01803 556703,sueovens@btconnect.com,http://www.ingridcubbondental.co.uk/,01803 556703
6126,V07779,Dentists,UNKNOWN,Visible,True,The Dental Surgery,Half Moon Lane,Wigton,,Cumbria,,CA7 9BF,54.823982238769531,-3.1613156795501709,Q49,Cumbria, Northumberland, Tyne And Wear Area Team,016973 45800,,,016973 45799
6127,V01700,Dentists,UNKNOWN,Visible,True,Fawdon Dental Practice,1 Station Cottages,Fawdon,,Newcastle Upon Tyne,,NE3 2RJ,55.013786315917969,-1.644464373588562,Q49,Cumbria, Northumberland, Tyne And Wear Area Team,0191 284 3882,,http://www.fawdondental.com,0191 284 3882
6128,V13936,Dentists,UNKNOWN,Visible,True,Genix Healthcare Limited,Genix Healthcare,271-275 Whitley Road,,Whitley Bay,,NE26 2SS,55.042072296142578,-1.4448486566543579,Q49,Cumbria, Northumberland, Tyne And Wear Area Team,01912 510155,whitleybay@genixhealthcare.com,http://www.genixhealthcare.com,
6129,V01600,Dentists,UNKNOWN,Visible,True,IDH Dental,Killingworth Dental Practice,,Citadel East,Killingworth,Tyne and Wear,NE12 6HS,55.037185668945313,-1.5643333196640015,Q49,Cumbria, Northumberland, Tyne And Wear Area Team,01912686502,killingworth-pm@idhgroup.co.uk,https://www.mydentist.co.uk,01912169975
6130,V01271,Dentists,UNKNOWN,Visible,True,mydentist, Meeting House Lane, Lancaster,,3 Meeting House Lane,,Lancaster,,LA1 1TJ,54.048145294189453,-2.8054916858673096,Q47,Lancashire Area Team,0152433225,lancaster2-pm@mydentist.co.uk,https://www.mydentist.co.uk,
6132,V06796,Dentists,UNKNOWN,Visible,False,Central Ortho,16 Ankerside Shopping Centre George Street,Tamworth,Staffs,,,B79 7LQ,52.632656097412109,-1.6933695077896118,Q60,Shropshire And Staffordshire Area Team,01827 61349,,,01827 64186
6133,V12970,Dentists,UNKNOWN,Visible,True,mydentist, Skinner Street, Stockton-on-Tees,,91 Skinner Street,,Stockton On Tees,,TS18 1EG,54.561866760253906,-1.3170487880706787,Q45,Durham, Darlington And Tees Area Team,01642 603 799,stocktonontees2-pm@mydentist.co.uk,https://www.mydentist.co.uk,
6134,V13276,Dentists,UNKNOWN,Visible,True,Fairfield Medical Centre,Alpha Dental Studio,Wellburn Road,Fairfield,Stockton On Tees,,TS19 7PP,54.566097259521484,-1.3607935905456543,Q45,Durham, Darlington And Tees Area Team,01642 587 646,,http://www.alphadental.co.uk/,
6135,V08885,Dentists,UNKNOWN,Visible,True,North Yorkshire Dental care,31-33 Monkgate,,,YORK,North Yorkshire,YO31 7WA,53.963981628417969,-1.0767573118209839,Q50,North Yorkshire And Humber Area Team,01904 725422,,http://www.hdft.nhs.uk,
6136,V08743,Dentists,UNKNOWN,Visible,True,North Yorkshire Dental Care,Haxby and Wigginton Health Centre,The Village,Wigginton,YORK,North Yorkshire,YO32 2LL,54.019351959228516,-1.0820492506027222,Q50,North Yorkshire And Humber Area Team,01904 724687,,http://www.hdft.nhs.uk,
6138,V08744,Dentists,UNKNOWN,Visible,True,North Yorkshire Dental Care,Cornlands Road,,,YORK,North Yorkshire,YO24 3WY,53.949073791503906,-1.1292128562927246,Q50,North Yorkshire And Humber Area Team,01904 724202,,http://www.hdft.nhs.uk,01904 790715
6139,V08742,Dentists,UNKNOWN,Visible,True,North Yorkshire Dental Care,Tanghall Health Centre,Fifth Avenue,Tanghall,YORK,North Yorkshire,YO31 0PR,53.960453033447266,-1.0497970581054687,Q50,North Yorkshire And Humber Area Team,01904 724336,,http://www.hdft.nhs.uk,
6140,V11576,Dentists,UNKNOWN,Visible,True,City Health Dental - Driffield,8 Market Place,Driffield,N Humberside,,,YO25 6AP,54.005096435546875,-0.43961223959922791,Q50,North Yorkshire And Humber Area Team,01377 208360,,www.cityhealthdental.co.uk,
6141,V04880,Dentists,UNKNOWN,Visible,True,Dr A Mohagh,237 Beverley Road,Hull,,N Humberside,,HU5 2UT,53.758098602294922,-0.34931865334510803,Q50,North Yorkshire And Humber Area Team,01482 441027,,,
6142,V03401,Dentists,UNKNOWN,Visible,True,Daybrook Dental Care,88 Mansfield Road,Daybrook,Nottingham,Nottinghamshire,,NG5 6GY,53.002647399902344,-1.1390126943588257,Q55,Derbyshire And Nottinghamshire Area Team,0115 9265822,,,
6143,V04773,Dentists,UNKNOWN,Visible,True,Ditchfield Dental ,49 Fairfax Road,,Market Harborough,Leics,,LE16 9JU,52.469703674316406,-0.92291736602783203,Q59,Leicestershire And Lincolnshire Area Team,01858 466663,,,
6145,V03672,Dentists,UNKNOWN,Visible,True,Sneinton Family Dental Centre,Sneinton Family Dental Centre,2 Colwick Road,Sneinton,Nottingham,Nottinghamshire,NG2 4BU,52.949390411376953,-1.1271365880966187,Q55,Derbyshire And Nottinghamshire Area Team,0115 9242526,thesneintonfdc@nationwidehealthcare.co.uk,,0115 9584963
6147,V00191,Dentists,UNKNOWN,Visible,True,Seven Dental,Seven Dental,69 - 75 Radford Road,Hyson Green,Nottingham,,NG7 5DR,52.964134216308594,-1.1698675155639648,Q55,Derbyshire And Nottinghamshire Area Team,0115 9700007,thepracticemanager@7dental.co.uk,http://www.7dental.co.uk,0115 9791929
6148,V03649,Dentists,UNKNOWN,Visible,True,Pedmore Valley Dental Practice,157 Pedmore Valley,Nottingham,,Notts,,NG5 5NX,53.001953125,-1.159843921661377,Q55,Derbyshire And Nottinghamshire Area Team,0115 967 6555,,,0115 926 6800
6149,V04126,Dentists,UNKNOWN,Visible,True,Derwent Valley Dental,22 St Marks Road,Derby,,Derbyshire,,DE21 6AH,52.9266357421875,-1.4579195976257324,Q55,Derbyshire And Nottinghamshire Area Team,01332 202102,,,
6150,V06554,Dentists,UNKNOWN,Visible,True,Patel, RV (The Orthodontic Practice),5 St. James Court,Friar Gate,,Derby,,DE1 1BT,52.924060821533203,-1.4888311624526978,Q55,Derbyshire And Nottinghamshire Area Team,01332 295727,,,
6152,V08318,Dentists,UNKNOWN,Visible,True,Central Park Dental Practice Ltd,Central Park Dental Practice Ltd,15 Milehouse Road,,Plymouth,Devon,PL3 4AD,50.384761810302734,-4.1586017608642578,Q66,Devon, Cornwall And Isles Of Scilly Area Team,01752 500959,cpdental@btconnect.com,http://www.centralparkdentist.co.uk/,01752 500463
6154,V05365,Dentists,UNKNOWN,Visible,True,Station Dental Practice,Station Dental Practice,9-10 Golden Hill,Leyland,Preston,Lancashire,PR25 3NN,53.697963714599609,-2.6891260147094727,Q47,Lancashire Area Team,01772 458855,stationdental@soegateway.com,http://stationdentalpractice.com/,
6155,V02776,Dentists,UNKNOWN,Visible,True,Bridgewater Dental Surgery,4 The Packet House and Steps,Barton Road,Worsley,Manchester,,M28 2PB,53.499900817871094,-2.3813018798828125,Q46,Greater Manchester Area Team,0161 727 9119,,http://bridgewaterdentalsurgery.com/blog/orthodontics/,
6156,V02838,Dentists,UNKNOWN,Visible,True,Whitehouse Dental Practice,11 Ack Lane East,Bramhall,,Stockport,,SK7 2BE,53.358669281005859,-2.1677324771881104,Q46,Greater Manchester Area Team,0161 439 4842,dentistryatwhdp@gmail.com,,
6157,V02840,Dentists,UNKNOWN,Visible,True,Cheadle Smile Centre,145a Councillor Lane,Cheadle,,Stockport,Cheshire,SK8 2JE,53.391120910644531,-2.1942193508148193,Q46,Greater Manchester Area Team,0161 428 7226,,,
6158,V03262,Dentists,UNKNOWN,Visible,True,The Ivy Dental Practice,The Ivy Dental Practice,161 Wellington Road South,,Stockport,Cheshire,SK1 3UA,53.402313232421875,-2.1562929153442383,Q46,Greater Manchester Area Team,0161 480 2913,ivydental@sky.com,http://www.theivydentalpractice.co.uk,
6159,V07957,Dentists,UNKNOWN,Visible,True,Church Road Dental Practice,66 Church Road,Bebington,,Wirral,,CH63 3EB,53.346237182617188,-3.0040578842163086,Q44,Cheshire, Warrington And Wirral Area Team,0151 645 4101,,www.pjscareltd.co.uk,
6160,V01930,Dentists,UNKNOWN,Visible,True,TSA Dental Care,5 Davies Road,West Bridgford,,Nottingham,,NG2 5JE,52.931301116943359,-1.123305082321167,Q55,Derbyshire And Nottinghamshire Area Team,0115 981 0012,,,
6161,V00281,Dentists,UNKNOWN,Visible,True,Allington Dental Care,...,5 West Allington,,BRIDPORT,Dorset,DT6 5BJ,50.734283447265625,-2.7638993263244629,Q70,Wessex Area Team,01308 421919,reception.allington@southerndental.co.uk,http://www.southerndental.co.uk,01308 421717
6162,V01028,Dentists,UNKNOWN,Visible,True,The Bridges Dental Practice,,23 Gloucester Street,,WEYMOUTH,Dorset,DT4 7AW,50.613162994384766,-2.4554593563079834,Q70,Wessex Area Team,01305783062,wykeregis-pm@idhgroup.co.uk,https://www.mydentist.co.uk,001305788475
6163,V05252,Dentists,UNKNOWN,Visible,True,Castle Hill Dental Practice,Castle Hill Dental Practice,Castle Hill Gardens,,Great Torrington,Devon,EX38 8EL,50.952003479003906,-4.1401629447937012,Q66,Devon, Cornwall And Isles Of Scilly Area Team,01805625837,greattorrington-pm@idhgroup.co.uk,https://www.mydentist.co.uk,
6164,V06363,Dentists,UNKNOWN,Visible,True,Barnbrook Dental Practice,25 Denmark Road,,,Exeter,,EX1 1SL,50.7237548828125,-3.5210318565368652,Q66,Devon, Cornwall And Isles Of Scilly Area Team,01392 273450,,,
6165,V00983,Dentists,UNKNOWN,Visible,True,Moretonhampstead Dental Practice,3 Court Street,,,Moretonhampstead,,TQ13 8NE,50.660514831542969,-3.76629638671875,Q66,Devon, Cornwall And Isles Of Scilly Area Team,01647 440968,,,
6166,V00980,Dentists,UNKNOWN,Visible,True,Ingleby Dental Practice,42 High Street,,,Cullompton,,EX15 1AE,50.858615875244141,-3.3926374912261963,Q66,Devon, Cornwall And Isles Of Scilly Area Team,01884 34638,,,
6168,V22378,Dentists,UNKNOWN,Visible,True,Frome Dental Access Centre,Colliers Court,Manor Road,,Frome,Somerset,BA11 4BS,51.222892761230469,-2.3271224498748779,Q65,Bristol, North Somerset, Somerset And South Gloucestershire Area Team,01373 456136,,http://www.sompar.nhs.uk/dental,01373 456137
6169,V00787,Dentists,UNKNOWN,Visible,True,Carling Dental Practice,1 Ashley House,The Broadway,Farnham Common,Buckinghamshire,,SL2 3PQ,51.555095672607422,-0.61567866802215576,Q69,Thames Valley Area Team,01753 647359,carlingdentalpractice@btconnect.com,http://www.carlingdental.co.uk/,01753 644181
6171,V09255,Dentists,UNKNOWN,Visible,False,Baxenden Dental Practice,522 Manchester Road,Accrington,Lancs,,,BB5 2RG,53.732753753662109,-2.3437378406524658,Q47,Lancashire Area Team,01254 236794,,,01254 385825
6172,V07879,Dentists,UNKNOWN,Visible,True,Rossendale Dental Health Centre,124 Burnley Road,Rawtenstall,,Lancs,,BB4 8HH,53.708980560302734,-2.2894895076751709,Q47,Lancashire Area Team,01706 836130,,,
6173,V03892,Dentists,UNKNOWN,Visible,True,Muirhead Dental Practice,50 Muirhead Avenue East,Norris Green,,Liverpool,Merseyside,L11 1EL,53.437957763671875,-2.9136538505554199,Q48,Merseyside Area Team,0151 256 9504,muirheaddentalpractice@hotmail.co.uk,,0151 256 9505
6174,V02620,Dentists,UNKNOWN,Visible,True,Sharing Smiles,54 Alma Street,Luton,Beds,,,LU1 2PL,51.880416870117188,-0.41935154795646667,Q58,Hertfordshire And The South Midlands Area Team,01582 877108,,,
6175,V05602,Dentists,UNKNOWN,Visible,True,mydentist, Howard Street, Bedford,,2 Howard Street,,Bedford,Bedfordshire,MK40 3HS,52.137386322021484,-0.46524232625961304,Q58,Hertfordshire And The South Midlands Area Team,01234359371,bedford-pm@idhgroup.co.uk,https://www.mydentist.co.uk/,01234346015
6176,V00187,Dentists,UNKNOWN,Visible,True,Dental Care Centre,Bedford Health Village,3 Kimbolton Road,Bedford,Beds,,MK40 2NT,52.140995025634766,-0.45924374461174011,Q58,Hertfordshire And The South Midlands Area Team,01234 310210,,http://www.communitydentalservices.co.uk,01234 310200
6177,V09137,Dentists,UNKNOWN,Visible,True,De-ientes,28 Lurke Street,Bedford,,Beds,Bedfordshire,MK40 3HU,52.138362884521484,-0.46409830451011658,Q58,Hertfordshire And The South Midlands Area Team,01234 263050,info@de-ientes.co.uk,http://www.de-ientes.co.uk,
6178,V06459,Dentists,UNKNOWN,Visible,True,Kimbolton Dental Surgery,6 Kimbolton Road,Bedford,Beds,,,MK40 2NR,52.140193939208984,-0.46266159415245056,Q58,Hertfordshire And The South Midlands Area Team,01234 355966,,http://www.kimboltondentalpractice.co.uk,
6179,V01405,Dentists,UNKNOWN,Visible,True,Queensbury Dental Practice,66 Langdale Road,Dunstable,,Beds,,LU6 3BS,51.878055572509766,-0.51992374658584595,Q58,Hertfordshire And The South Midlands Area Team,01582 605184,,,
6180,V06149,Dentists,UNKNOWN,Visible,False,Woodhall Dental Practice,33 Cole Green Lane,,Welwyn Garden City,Herts,,AL7 3PP,51.791679382324219,-0.19421973824501038,Q58,Hertfordshire And The South Midlands Area Team,01707 375000,,,
6181,V06105,Dentists,UNKNOWN,Visible,True,Ivory Dental Clinic,10 Fretherne Chambers,Fretherne Road,,Welwyn Garden City,,AL8 6NY,51.800991058349609,-0.2061757892370224,Q58,Hertfordshire And The South Midlands Area Team,01707 328008,,http://www.ivorydentalclinic.co.uk,
6183,V06210,Dentists,UNKNOWN,Visible,False,Hitchin Dental Centre,49 Ninesprings Way,,Hitchin,Herts,,SG4 9NR,51.942371368408203,-0.25969749689102173,Q58,Hertfordshire And The South Midlands Area Team,01462 641111,,,
6184,V01487,Dentists,UNKNOWN,Visible,False,Cherry Tree Dental Care,52a Flamstead End Road,,Cheshunt,Herts,,EN8 0HX,51.712608337402344,-5.0011292099952698E-2,Q58,Hertfordshire And The South Midlands Area Team,01992 626137,,,01922 631094
6185,V01453,Dentists,UNKNOWN,Visible,True,Herts Orthodontics,3 St Marys Courtyard,Church Street,,Ware,Hertfordshire,SG12 9EF,51.812248229980469,-3.3658500760793686E-2,Q58,Hertfordshire And The South Midlands Area Team,01920 411066,info@hertsorthodontics.com,http://www.hertsorthodontics.com,01920 411 060
6186,V11247,Dentists,UNKNOWN,Visible,True,Priory Dental Centre,17 Queens Road,,Royston,Herts,,SG8 7AN,52.053123474121094,-0.02309814840555191,Q58,Hertfordshire And The South Midlands Area Team,01763 246677,,,
6187,V01571,Dentists,UNKNOWN,Visible,True,Limes [The] - Orthodontic Practice,30 Stansted Road,,Bishop's Stortford,Herts,,CM23 2DX,51.870250701904297,0.16740386188030243,Q58,Hertfordshire And The South Midlands Area Team,01279 758210,,,
6188,V01581,Dentists,UNKNOWN,Visible,True,Sawbridgeworth Dental Practice,Townsend House,99 London Road,,Sawbridgeworth,Hertfordshire,CM21 9JJ,51.81488037109375,0.14795903861522675,Q58,Hertfordshire And The South Midlands Area Team,01279 724121,,http://www.sawbridgeworthdentalpractice.com,
6189,V04585,Dentists,UNKNOWN,Visible,True,Evergreen Dentistry,294 London Road,Stanway,Colchester,Essex,,CO3 8PB,51.88507080078125,0.82343250513076782,Q57,Essex Area Team,01206 213746,,,
6190,V01786,Dentists,UNKNOWN,Visible,True,Patient First Dental Practice,28 London Road,,,Grays,,RM17 5XY,51.478385925292969,0.32136482000350952,Q57,Essex Area Team,01375 396264,,http://www.patientfirstdentalpractice.co.uk ,01375 396265
6191,V01788,Dentists,UNKNOWN,Visible,True,Barbara Hellyar Dental Surgery,Darenth Lane,,South Ockendon,Essex,,RM15 5LP,51.508243560791016,0.28287646174430847,Q57,Essex Area Team,01708 853296,,,
6192,V08004,Dentists,UNKNOWN,Visible,True,Leverstock Green Dental Practice,17 Village Centre,,,Leverstock Green,,HP3 8QG,51.748256683349609,-0.43161752820014954,Q58,Hertfordshire And The South Midlands Area Team,01442 213836,,,
6193,V04642,Dentists,UNKNOWN,Visible,True,Osibodu Mrs O & Associate,High Oaks Dental Practice,26 High Oaks,,St Albans,Hertfordshire,AL3 6DL,51.770595550537109,-0.33985966444015503,Q58,Hertfordshire And The South Midlands Area Team,01727 893430,info@highoaksdental.com,http://www.highoaksdentalpractice.com,
6194,V06297,Dentists,UNKNOWN,Visible,False,Marford Road Dental Practice,34 Marford Road,,Wheathampstead,Herts,,AL4 8AS,51.810600280761719,-0.29061403870582581,Q58,Hertfordshire And The South Midlands Area Team,01582 833408,,http://marfordroaddental.co.uk,
6195,V04505,Dentists,UNKNOWN,Visible,True,St. Clements Dental Care ,60 Fulham Palace Road,Hammersmith,,London,,W6 9PH,51.490413665771484,-0.2237367182970047,Q71,London Area Team,020 8741 4777,hammersmith@stclementsdental.co.uk,http://www.stclementsdental.co.uk,
6196,V04538,Dentists,UNKNOWN,Visible,True,Perfect Smile Dental Surgery ,,247 Munster Road,Fulham,London,,SW6 6BS,51.480857849121094,-0.21286021173000336,Q71,London Area Team,020 7381 4455,fulham@perfectsmile-dental.com,http://www.perfectsmile-dental.com,020 7381 4455
6197,V04109,Dentists,UNKNOWN,Visible,True,Hughes,60 Thames Road,Chiswick,Middlesex,London,,W4 3RE,51.486446380615234,-0.28040972352027893,Q71,London Area Team,020 8995 0298,,http://strandonthegreendental.com,
6198,V06025,Dentists,UNKNOWN,Visible,True,Oaklands Dental Practice,5 Nantwich Road,Tarporley,Cheshire,Tarporley,,CW6 9UN,53.152965545654297,-2.6666266918182373,Q44,Cheshire, Warrington And Wirral Area Team,01829 732979,,http://www.oaklandsdentalcare.co.uk/,
6200,V08496,Dentists,UNKNOWN,Visible,True,Delph Dental Practice,3 The Delph Centre,Market Street,Derbyshire,Swadlincote,Derbyshire,DE11 9DA,52.773838043212891,-1.5585708618164063,Q55,Derbyshire And Nottinghamshire Area Team,01283 222499,delphdental@gmail.com,http://www.delphdental.co.uk,01283 226738
6201,V03779,Dentists,UNKNOWN,Visible,True,The Orthodontic Practice,84 Rodney Street,Liverpool,,Merseyside,,L1 9AR,53.399627685546875,-2.9741964340209961,Q48,Merseyside Area Team,0151 709 1980,,,
6202,V03815,Dentists,UNKNOWN,Visible,True,Mr S A Chu & Associates,Dental Surgery 135b,Queens Drive,,West Derby,,L13 0AB,53.43377685546875,-2.9256210327148437,Q48,Merseyside Area Team,0151 226 3703,,,
6203,V03903,Dentists,UNKNOWN,Visible,True,Mr M Al-Sharkawi,106-108 Childwall Priory Road,Liverpool,,Merseyside,,L16 7PF,53.394882202148438,-2.8922934532165527,Q48,Merseyside Area Team,0151 722 3000,,http://www.gentledentalcare.co.uk,
6204,V01885,Dentists,UNKNOWN,Visible,False,The Beeches Orthodontic Practice,114 Watling Street Road,Fulwood,Preston,Lancs,,PR2 8AH,53.778602600097656,-2.6899960041046143,Q47,Lancashire Area Team,01772 705511,,,01772 702690
6206,V12825,Dentists,UNKNOWN,Visible,True,Ravat & Ray Dental Care - Wigan,Pemberton Health Centre,Sherwood Drive,Pemberton,Wigan,Lancashire,WN5 9QX,53.538242340087891,-2.6697840690612793,Q46,Greater Manchester Area Team,01942 481929,pemberton@ravatandray.com,http://www.ravatandray.com,
6207,V07348,Dentists,UNKNOWN,Visible,True,Mr A H Bell,Tyldesley Dental Surgery,219 Elliott Street,Tyldesley,Manchester,,M29 8DG,53.51422119140625,-2.4637086391448975,Q46,Greater Manchester Area Team,01942 882151,,,
6208,V07457,Dentists,UNKNOWN,Visible,True,Hindley Dental Practice,1-5 Ladies Lane,Hindley,,Wigan,Lancashire,WN2 2QA,53.5384521484375,-2.576446533203125,Q46,Greater Manchester Area Team,01942 255315,hindleydental@gmail.com,,01942 255315
6209,V04058,Dentists,UNKNOWN,Visible,True,South Road Dental Practice,15 South Road,Norton,,Stourbridge,West Midlands,DY8 3XZ,52.450729370117188,-2.1532061100006104,Q54,Birmingham And The Black Country Area Team,01384 374374,info@southroaddentalpractice.co.uk,,
6210,V03538,Dentists,UNKNOWN,Visible,True,Highview Dental Clinic,Highview,170 Byron Way,Northolt,Middx,,UB5 6BW,51.532527923583984,-0.38323169946670532,Q71,London Area Team,020 8841 3555,highview@southerndental.co.uk,http://www.southerndental.co.uk/,020 8845 0727
6211,V01843,Dentists,UNKNOWN,Visible,True,Oldfield Dental Practice ,150 Oldfield Lane South,Greenford,Middx,London,,UB6 9JX,51.532806396484375,-0.35088264942169189,Q71,London Area Team,020 8578 8672,,http://www.oldfielddental.co.uk,
6212,V02466,Dentists,UNKNOWN,Visible,False,Junction Road Dental Practice,20 Junction Road,,Ealing,,,W5 4XL,51.495803833007813,-0.30934548377990723,Q71,London Area Team,020 8560 3604,,,
6213,V04088,Dentists,UNKNOWN,Visible,True,Hamilton Dental Care,8 Hamilton Parade,Feltham Hill Road,Feltham,Middx,,TW13 4PJ,51.432582855224609,-0.41854128241539001,Q71,London Area Team,020 8707 9088,,,
6214,V05967,Dentists,UNKNOWN,Visible,False,Croft Dental Surgery,The Croft,Stockbridge Village,Liverpool,Merseyside,,L28 1NR,53.435550689697266,-2.868729829788208,Q48,Merseyside Area Team,0151 489 1298,,http://www.croftdental .co.uk,
6215,V06487,Dentists,UNKNOWN,Visible,True,Bosworth Dental Ltd,York House,41 Station Road,,Market Bosworth,Warwickshire,CV13 0LT,52.623703002929688,-1.404502272605896,Q59,Leicestershire And Lincolnshire Area Team,01455 290777,info@bosworthdental.co.uk,http://www.bosworthdental.com,01455 290913
6216,V06478,Dentists,UNKNOWN,Visible,True,Holywell House,56 London Road,,Hinckley,Leics,,LE10 1HL,52.540596008300781,-1.3580425977706909,Q59,Leicestershire And Lincolnshire Area Team,01455 234758,,,
6217,V06528,Dentists,UNKNOWN,Visible,True,Ingrams Dental Practice,187 Greenhill Road,,Coalville,Leics,Leicestershire,LE67 4UF,52.724361419677734,-1.3241955041885376,Q59,Leicestershire And Lincolnshire Area Team,01530 510783,reception@ingramsdp.com,http://www.ingramsdp.com,
6218,V06170,Dentists,UNKNOWN,Visible,True,The Avenue Dental Practice ,20 Stewart Avenue,,Enderby,Leics,,LE19 4LN,52.582786560058594,-1.2134543657302856,Q59,Leicestershire And Lincolnshire Area Team,0116 284 1977,,,
6219,V04021,Dentists,UNKNOWN,Visible,True,Orthoworld,Orthoworld Cambridge,2b Milton Road,,Cambridge,Cambridgeshire,CB4 1JY,52.215217590332031,0.12583856284618378,Q56,East Anglia Area Team,01223350530,cambridge@orthoworld.co.uk,https://www.mydentist.co.uk/dentists/practices/england/cambridgeshire/cambridgeshire/orthoworld-2000,01223351941
6220,V02845,Dentists,UNKNOWN,Visible,True,mydentist, Chesterton Road, Cambridge,36 Chesterton Road,Cambridge,,Cambs,,CB4 1EN,52.214244842529297,0.1263338178396225,Q56,East Anglia Area Team,01223 319787,camberidge-rec@mydentist.co.uk,https://www.mydentist.co.uk,
6221,V01987,Dentists,UNKNOWN,Visible,True,Charnock House Dental Surgery,Charnock House,233 Chesterton Road,Cambridge,Cambs,,CB4 1AS,52.215782165527344,0.13136987388134003,Q56,East Anglia Area Team,01223 350367,,http://www.cambridgedentalgroup.co.uk,
6222,V06345,Dentists,UNKNOWN,Visible,True,Chequer Hall Dental Practice,Chequer Hall Dental Practice,6 Chequer Lane,,Ely,Cambridgeshire,CB7 4LN,52.399703979492188,0.26379275321960449,Q56,East Anglia Area Team,01353668281,ely-pm@idhgroup.co.uk,https://www.mydentist.co.uk,
6223,V00344,Dentists,UNKNOWN,Visible,True,Rushmere Dental Practice,,728 Foxhall Road,,Ipswich,Suffolk,IP4 5TE,52.048908233642578,1.2106949090957642,Q56,East Anglia Area Team,01473 271966,,http://www.rushmeredentalcare.co.uk,
6224,V00028,Dentists,UNKNOWN,Visible,True,Rodericks Ltd: Yeovil Dental Practice,10 Sherborne Road,Yeovil,,Somerset,,BA21 4HA,50.942604064941406,-2.6237366199493408,Q65,Bristol, North Somerset, Somerset And South Gloucestershire Area Team,01935 848684,,,01935 423781
